{"placemarks":[{"address":"Via Emilio De Martino 4, 20162 Milano","coordinates":[9.19746,45.50847,0],"engineType":"CE","exterior":"UNACCEPTABLE","fuel":45,"interior":"GOOD","name":"317/ES292JF","vin":"WME4513341K646187"},{"address":"Via San Luca 6, 20122 Milano","coordinates":[9.18561,45.45469,0],"engineType":"CE","exterior":"UNACCEPTABLE","fuel":24,"interior":"GOOD","name":"406/ES363JF","vin":"WME4513341K646691"},{"address":"Via Lodovico Muratori 20, 20135 Milano","coordinates":[9.20763,45.45169,0],"engineType":"CE","exterior":"GOOD","fuel":90,"interior":"GOOD","name":"428/ES362JF","vin":"WME4513341K646685"},{"address":"Via Valfurva 4, 20162 Milano","coordinates":[9.19564,45.50855,0],"engineType":"CE","exterior":"UNACCEPTABLE","fuel":57,"interior":"UNACCEPTABLE","name":"320/ES390JF","vin":"WME4513341K647675"},{"address":"Via Uruguay 30, 20151 Milano","coordinates":[9.1181,45.49741,0],"engineType":"CE","exterior":"GOOD","fuel":100,"interior":"GOOD","name":"306/ES395JF","vin":"WME4513341K647759"},{"address":"Viale Lombardia 45, 20131 Milano","coordinates":[9.22364,45.48497,0],"engineType":"CE","exterior":"GOOD","fuel":100,"interior":"GOOD","name":"266/ES392JF","vin":"WME4513341K647718"},{"address":"Via Federico Tesio 27, 20151 Milano","coordinates":[9.11806,45.48038,0],"engineType":"CE","exterior":"UNACCEPTABLE","fuel":87,"interior":"UNACCEPTABLE","name":"031/ER720NP","vin":"WME4513341K647972"},{"address":"Piazza Castello 1 - 5, 20121 Milano (raggio 300m)","coordinates":[9.18034,45.46863,0],"engineType":"CE","exterior":"GOOD","fuel":54,"interior":"GOOD","name":"313/ES396JF","vin":"WME4513341K647774"},{"address":"Strada Statale Varesina, 20157 Milano","coordinates":[9.13146,45.51047,0],"engineType":"CE","exterior":"GOOD","fuel":66,"interior":"UNACCEPTABLE","name":"422/ES406JF","vin":"WME4513341K646891"},{"address":"Via Fratelli Rizzardi 24, 20151 Milano","coordinates":[9.10104,45.49353,0],"engineType":"CE","exterior":"GOOD","fuel":54,"interior":"GOOD","name":"127/ER814NP","vin":"WME4513341K646365"},{"address":"Via Carnia 29, 20132 Milano","coordinates":[9.23574,45.49459,0],"engineType":"CE","exterior":"GOOD","fuel":100,"interior":"GOOD","name":"397/ES357JF","vin":"WME4513341K646637"},{"address":"Via Alfonso Capecelatro 73, 20151 Milano","coordinates":[9.12675,45.4735,0],"engineType":"CE","exterior":"GOOD","fuel":54,"interior":"GOOD","name":"427/ES333JF","vin":"WME4513341K645771"},{"address":"Via Uruguay, 20151 Milano","coordinates":[9.11608,45.49809,0],"engineType":"CE","exterior":"GOOD","fuel":69,"interior":"GOOD","name":"404/ES326JF","vin":"WME4513341K645660"},{"address":"Via Alfonso Capecelatro 68, 20151 Milano","coordinates":[9.12683,45.47351,0],"engineType":"CE","exterior":"GOOD","fuel":45,"interior":"GOOD","name":"346/ES231JF","vin":"WME4513341K644463"},{"address":"Viale Giovanni Suzzani 13, 20162 Milano","coordinates":[9.19755,45.50641,0],"engineType":"CE","exterior":"GOOD","fuel":75,"interior":"GOOD","name":"328/ES217JF","vin":"WME4513341K644006"},{"address":"Via Francesco Cilea 120, 20151 Milano","coordinates":[9.09697,45.49983,0],"engineType":"CE","exterior":"GOOD","fuel":66,"interior":"GOOD","name":"056/ER745NP","vin":"WME4513341K645000"},{"address":"Bastioni di Porta Volta 12, 20121 Milano","coordinates":[9.18154,45.47958,0],"engineType":"CE","exterior":"GOOD","fuel":93,"interior":"UNACCEPTABLE","name":"309/ES254JF","vin":"WME4513341K644506"},{"address":"Via Giovanni Battista Rasario 3, 20153 Milano","coordinates":[9.07331,45.49228,0],"engineType":"CE","exterior":"UNACCEPTABLE","fuel":54,"interior":"GOOD","name":"369/ES302JF","vin":"WME4513341K645141"},{"address":"Via Caio Mario 13, 20153 Milano","coordinates":[9.08787,45.47747,0],"engineType":"CE","exterior":"UNACCEPTABLE","fuel":42,"interior":"UNACCEPTABLE","name":"332/ES260JF","vin":"WME4513341K644901"},{"address":"Via Giuseppe Ugolini 3, 20125 Milano","coordinates":[9.20663,45.50429,0],"engineType":"CE","exterior":"GOOD","fuel":100,"interior":"GOOD","name":"339/ES298JF","vin":"WME4513341K645057"},{"address":"Viale Monza 357, 20126 Milano","coordinates":[9.2274,45.52196,0],"engineType":"CE","exterior":"GOOD","fuel":36,"interior":"GOOD","name":"268/ES222JF","vin":"WME4513341K644327"},{"address":"Via Francesco Primaticcio 31, 20147 Milano","coordinates":[9.1343,45.45161,0],"engineType":"CE","exterior":"GOOD","fuel":60,"interior":"GOOD","name":"352/ES311JF","vin":"WME4513341K645340"},{"address":"Via Guido Capelli 3, 20126 Milano","coordinates":[9.22033,45.51622,0],"engineType":"CE","exterior":"GOOD","fuel":93,"interior":"GOOD","name":"046/ER735NP","vin":"WME4513341K646999"},{"address":"Via Luigi Caroli 12, 20128 Milano","coordinates":[9.23819,45.5086,0],"engineType":"CE","exterior":"GOOD","fuel":100,"interior":"GOOD","name":"273/ES407JF","vin":"WME4513341K646904"},{"address":"Via Val Sabbia 1, 20161 Milano","coordinates":[9.16029,45.52641,0],"engineType":"CE","exterior":"GOOD","fuel":72,"interior":"GOOD","name":"279/ES293JF","vin":"WME4513341K646239"},{"address":"Via Arturo Carlo Jemolo 8, 20152 Milano","coordinates":[9.0685,45.45087,0],"engineType":"CE","exterior":"GOOD","fuel":54,"interior":"GOOD","name":"364/ES352JF","vin":"WME4513341K646510"},{"address":"Piazza Federico Bonola, 20151 Milano","coordinates":[9.10721,45.49936,0],"engineType":"CE","exterior":"GOOD","fuel":87,"interior":"GOOD","name":"001/EN899HT","vin":"WME4513341K639720"},{"address":"Via Giuseppe Prina 4, 20154 Milano","coordinates":[9.16953,45.48084,0],"engineType":"CE","exterior":"UNACCEPTABLE","fuel":21,"interior":"UNACCEPTABLE","name":"159/ES283JF","vin":"WME4513341K639925"},{"address":"Via Cusio 11, 20159 Milano","coordinates":[9.18733,45.49373,0],"engineType":"CE","exterior":"GOOD","fuel":87,"interior":"GOOD","name":"126/ER813NP","vin":"WME4513341K640610"},{"address":"Via Lucca 25 - 33, 20152 Milano (raggio 300m)","coordinates":[9.10958,45.45504,0],"engineType":"CE","exterior":"GOOD","fuel":100,"interior":"GOOD","name":"156/ES187JF","vin":"WME4513341K640205"},{"address":"Via Lanfranco della Pila 57, 20162 Milano","coordinates":[9.20117,45.51704,0],"engineType":"CE","exterior":"GOOD","fuel":51,"interior":"GOOD","name":"158/ES272JF","vin":"WME4513341K639765"},{"address":"Via Biella 18, 20143 Milano","coordinates":[9.15537,45.43905,0],"engineType":"CE","exterior":"GOOD","fuel":36,"interior":"GOOD","name":"116/ER804NP","vin":"WME4513341K637357"},{"address":"Via Antonio Cechov 37, 20151 Milano","coordinates":[9.11524,45.49395,0],"engineType":"CE","exterior":"GOOD","fuel":48,"interior":"GOOD","name":"100/ER788NP","vin":"WME4513341K639846"},{"address":"Via Francesco Cilea 90 - 100, 20151 Milano (raggio 300m)","coordinates":[9.10105,45.49688,0],"engineType":"CE","exterior":"GOOD","fuel":63,"interior":"GOOD","name":"105/ER793NP","vin":"WME4513341K640674"},{"address":"Via Giuseppe Candiani 100, 20158 Milano","coordinates":[9.16489,45.50366,0],"engineType":"CE","exterior":"GOOD","fuel":100,"interior":"GOOD","name":"154/ES269JW","vin":"WME4513341K637286"},{"address":"Via Feltre 17, 20132 Milano","coordinates":[9.2391,45.49116,0],"engineType":"CE","exterior":"GOOD","fuel":100,"interior":"GOOD","name":"130/ER817NP","vin":"WME4513341K637190"},{"address":"Via Flumendosa 48, 20132 Milano","coordinates":[9.24929,45.5075,0],"engineType":"CE","exterior":"GOOD","fuel":36,"interior":"GOOD","name":"149/ER836NP","vin":"WME4513341K639852"},{"address":"Via Salerno 3, 20143 Milano","coordinates":[9.14872,45.43798,0],"engineType":"CE","exterior":"GOOD","fuel":69,"interior":"GOOD","name":"132/ER819NP","vin":"WME4513341K637203"},{"address":"Via Alessandro Zanoli 18, 20161 Milano","coordinates":[9.17086,45.51566,0],"engineType":"CE","exterior":"GOOD","fuel":93,"interior":"GOOD","name":"006/ER695NP","vin":"WME4513341K639713"},{"address":"Via Fratelli Angelo e Mario Bettinelli 4, 20143 Milano","coordinates":[9.17862,45.45115,0],"engineType":"CE","exterior":"GOOD","fuel":51,"interior":"GOOD","name":"099/ER787NP","vin":"WME4513341K640250"},{"address":"Via Ettore Perrone di San Martino 6, 20125 Milano","coordinates":[9.20176,45.49765,0],"engineType":"CE","exterior":"GOOD","fuel":42,"interior":"GOOD","name":"164/ES193JF","vin":"WME4513341K640723"},{"address":"Via Antonio Pollaiuolo 15, 20159 Milano","coordinates":[9.18783,45.49028,0],"engineType":"CE","exterior":"GOOD","fuel":57,"interior":"GOOD","name":"144/ER831NP","vin":"WME4513341K639778"},{"address":"Via Marco Bruto 13, 20138 Milano","coordinates":[9.23969,45.45924,0],"engineType":"CE","exterior":"GOOD","fuel":81,"interior":"GOOD","name":"115/ER803NP","vin":"WME4513341K637302"},{"address":"Via Gaspare Spontini 10, 20131 Milano","coordinates":[9.2145,45.48138,0],"engineType":"CE","exterior":"GOOD","fuel":100,"interior":"GOOD","name":"119/ER806NP","vin":"WME4513341K640760"},{"address":"Via Giovanni Battista Piranesi 6 - 10, 20137 Milano (raggio 100m)","coordinates":[9.22473,45.46067,0],"engineType":"CE","exterior":"GOOD","fuel":51,"interior":"GOOD","name":"163/ES206JF","vin":"WME4513341K637823"},{"address":"Viale Papa Achille 25, 20149 Milano","coordinates":[9.14182,45.4886,0],"engineType":"CE","exterior":"GOOD","fuel":100,"interior":"GOOD","name":"102/ER790NP","vin":"WME4513341K639862"},{"address":"Via Ugo Betti 119, 20151 Milano","coordinates":[9.10752,45.49446,0],"engineType":"CE","exterior":"GOOD","fuel":60,"interior":"GOOD","name":"157/ES191JF","vin":"WME4513341K640434"},{"address":"Via Gottlieb Wilhelm Daimler, 20151 Milano","coordinates":[9.10027,45.50778,0],"engineType":"CE","exterior":"GOOD","fuel":27,"interior":"GOOD","name":"147/ER834NP","vin":"WME4513341K640282"},{"address":"Via Appennini 5, 20151 Milano","coordinates":[9.10733,45.49963,0],"engineType":"CE","exterior":"GOOD","fuel":100,"interior":"GOOD","name":"136/ER823NP","vin":"WME4513341K640260"},{"address":"Viale Ca' Granda 41, 20162 Milano","coordinates":[9.19113,45.50847,0],"engineType":"CE","exterior":"GOOD","fuel":90,"interior":"GOOD","name":"123/ER810NP","vin":"WME4513341K640349"},{"address":"Via Longarone 38, 20157 Milano","coordinates":[9.14135,45.51993,0],"engineType":"CE","exterior":"GOOD","fuel":78,"interior":"UNACCEPTABLE","name":"201/ES259JF","vin":"WME4513341K644864"},{"address":"Via Santa Maria Fulcorina 3, 20123 Milano","coordinates":[9.18372,45.46366,0],"engineType":"CE","exterior":"GOOD","fuel":78,"interior":"GOOD","name":"035/ER724NP","vin":"WME4513341K639825"},{"address":"Via Fratelli Zoia 59, 20153 Milano","coordinates":[9.10912,45.47349,0],"engineType":"CE","exterior":"GOOD","fuel":57,"interior":"GOOD","name":"160/ES275JF","vin":"WME4513341K639828"},{"address":"Corso di Porta Romana 121, 20122 Milano","coordinates":[9.20062,45.45321,0],"engineType":"CE","exterior":"UNACCEPTABLE","fuel":63,"interior":"GOOD","name":"155/ES270JW","vin":"WME4513341K639660"},{"address":"Via Donna Prassede 2, 20142 Milano","coordinates":[9.16967,45.43152,0],"engineType":"CE","exterior":"GOOD","fuel":78,"interior":"GOOD","name":"148/ER835NP","vin":"WME4513341K640418"},{"address":"Via Vincenzo Monti 79, 20145 Milano","coordinates":[9.16168,45.47654,0],"engineType":"CE","exterior":"GOOD","fuel":100,"interior":"GOOD","name":"165/ES185JF","vin":"WME4513341K640194"},{"address":"Via Pietro Borsieri 37, 20159 Milano","coordinates":[9.18908,45.4895,0],"engineType":"CE","exterior":"GOOD","fuel":30,"interior":"GOOD","name":"213/ES280JF","vin":"WME4513341K639897"},{"address":"Viale Fulvio Testi 280, 20126 Milano","coordinates":[9.21131,45.52445,0],"engineType":"CE","exterior":"GOOD","fuel":78,"interior":"GOOD","name":"128/ER815NP","vin":"WME4513341K639906"},{"address":"Via Rottole 3, 20132 Milano","coordinates":[9.24234,45.50227,0],"engineType":"CE","exterior":"GOOD","fuel":100,"interior":"GOOD","name":"153/ES245JW","vin":"WME4513341K639774"},{"address":"Via Gian Rinaldo Carli 9, 20161 Milano","coordinates":[9.17062,45.52101,0],"engineType":"CE","exterior":"UNACCEPTABLE","fuel":63,"interior":"GOOD","name":"172/ES287JF","vin":"WME4513341K639952"},{"address":"Via Edgardo Moltoni 7 - 11, 20152 Milano (raggio 100m)","coordinates":[9.06692,45.45217,0],"engineType":"CE","exterior":"GOOD","fuel":100,"interior":"GOOD","name":"171/ES189JF","vin":"WME4513341K640269"},{"address":"Viale Sarca, 20126 Milano","coordinates":[9.21964,45.52382,0],"engineType":"CE","exterior":"UNACCEPTABLE","fuel":100,"interior":"UNACCEPTABLE","name":"125/ER812NP","vin":"WME4513341K639840"},{"address":"Via Ernesto Breda 135, 20126 Milano","coordinates":[9.2203,45.51766,0],"engineType":"CE","exterior":"GOOD","fuel":63,"interior":"GOOD","name":"004/ER693NP","vin":"WME4513341K640889"},{"address":"Via Uruguay 34, 20151 Milano","coordinates":[9.1162,45.49707,0],"engineType":"CE","exterior":"GOOD","fuel":100,"interior":"GOOD","name":"168/ES188JF","vin":"WME4513341K640264"},{"address":"Via Pergine 7, 20148 Milano","coordinates":[9.13872,45.48775,0],"engineType":"CE","exterior":"GOOD","fuel":51,"interior":"GOOD","name":"169/ES192JF","vin":"WME4513341K640508"},{"address":"Via Mario Borsa 67, 20151 Milano (raggio 100m)","coordinates":[9.09682,45.50339,0],"engineType":"CE","exterior":"GOOD","fuel":66,"interior":"GOOD","name":"137/ER824NP","vin":"WME4513341K639856"},{"address":"Via Guido Guarini Matteucci 1, 20162 Milano","coordinates":[9.19811,45.50569,0],"engineType":"CE","exterior":"GOOD","fuel":42,"interior":"GOOD","name":"078/ER767NP","vin":"WME4513341K640278"},{"address":"Via Sem Benelli 10, 20151 Milano","coordinates":[9.12323,45.49682,0],"engineType":"CE","exterior":"GOOD","fuel":96,"interior":"GOOD","name":"224/ES182JF","vin":"WME4513341K640158"},{"address":"Via Giovita Scalvini 14, 20158 Milano","coordinates":[9.16712,45.49844,0],"engineType":"CE","exterior":"GOOD","fuel":90,"interior":"GOOD","name":"205/ES190JF","vin":"WME4513341K640400"},{"address":"Via Corrado Alvaro 9, 20128 Milano","coordinates":[9.23306,45.51267,0],"engineType":"CE","exterior":"GOOD","fuel":100,"interior":"GOOD","name":"208/ES180JF","vin":"WME4513341K637272"},{"address":"Via Barnaba Oriani 66, 20156 Milano","coordinates":[9.13199,45.50062,0],"engineType":"CE","exterior":"GOOD","fuel":72,"interior":"GOOD","name":"170/ES183JF","vin":"WME4513341K640181"},{"address":"Via Venezuela 3, 20151 Milano","coordinates":[9.12464,45.49447,0],"engineType":"CE","exterior":"GOOD","fuel":100,"interior":"GOOD","name":"131/ER818NP","vin":"WME4513341K639648"},{"address":"Via Giovanni Labus 6, 20147 Milano","coordinates":[9.12458,45.46137,0],"engineType":"CE","exterior":"GOOD","fuel":100,"interior":"GOOD","name":"244/ES168JF","vin":"WME4513341K636986"},{"address":"Corso di Porta Nuova 19, 20121 Milano","coordinates":[9.19204,45.47755,0],"engineType":"CE","exterior":"GOOD","fuel":66,"interior":"GOOD","name":"135/ER822NP","vin":"WME4513341K639799"},{"address":"Via Guido Coppin 2, 20142 Milano","coordinates":[9.13415,45.44009,0],"engineType":"CE","exterior":"GOOD","fuel":72,"interior":"GOOD","name":"256/ES271JF","vin":"WME4513341K639738"},{"address":"Via Trenno 19, 20151 Milano","coordinates":[9.12725,45.48685,0],"engineType":"CE","exterior":"GOOD","fuel":66,"interior":"GOOD","name":"177/ES174JF","vin":"WME4513341K637137"},{"address":"Via Maria Montessori 2, 20138 Milano (raggio 100m)","coordinates":[9.2385,45.46078,0],"engineType":"CE","exterior":"GOOD","fuel":66,"interior":"GOOD","name":"173/ES248JF","vin":"WME4513341K639436"},{"address":"Via dei Crollalanza 17, 20143 Milano","coordinates":[9.16728,45.44556,0],"engineType":"CE","exterior":"GOOD","fuel":48,"interior":"GOOD","name":"184/ES243JF","vin":"WME4513341K639256"},{"address":"Via San Vito 24, 20123 Milano","coordinates":[9.18266,45.45973,0],"engineType":"CE","exterior":"UNACCEPTABLE","fuel":15,"interior":"UNACCEPTABLE","name":"117/ER841NP","vin":"WME4513341K638025"},{"address":"Via Piero Bottoni 18, 20141 Milano","coordinates":[9.20785,45.42888,0],"engineType":"CE","exterior":"GOOD","fuel":100,"interior":"GOOD","name":"207/ES277JF","vin":"WME4513341K639877"},{"address":"Via Appennini 69, 20151 Milano","coordinates":[9.10469,45.50244,0],"engineType":"CE","exterior":"GOOD","fuel":100,"interior":"UNACCEPTABLE","name":"237/ES159JF","vin":"WME4513341K636850"},{"address":"Via Vittorio Gassman, 20128 Milano","coordinates":[9.23614,45.51376,0],"engineType":"CE","exterior":"GOOD","fuel":100,"interior":"GOOD","name":"259/ES146JF","vin":"WME4513341K636641"},{"address":"Corso Lodi 114, 20139 Milano","coordinates":[9.22167,45.44106,0],"engineType":"CE","exterior":"GOOD","fuel":100,"interior":"UNACCEPTABLE","name":"228/ES162JF","vin":"WME4513341K636903"},{"address":"Via Lucca 19, 20152 Milano","coordinates":[9.1116,45.45557,0],"engineType":"CE","exterior":"GOOD","fuel":100,"interior":"GOOD","name":"239/ES161JF","vin":"WME4513341K636899"},{"address":"Viale Argonne 16, 20133 Milano (raggio 100m)","coordinates":[9.22646,45.46786,0],"engineType":"CE","exterior":"GOOD","fuel":51,"interior":"GOOD","name":"055/ER744NP","vin":"WME4513341K637489"},{"address":"Via Ettore Majorana, 20162 Milano","coordinates":[9.18742,45.51242,0],"engineType":"CE","exterior":"GOOD","fuel":100,"interior":"GOOD","name":"253/ES200JF","vin":"WME4513341K637519"},{"address":"Via Mario Borsa 22, 20151 Milano (raggio 300m)","coordinates":[9.10228,45.50097,0],"engineType":"CE","exterior":"UNACCEPTABLE","fuel":48,"interior":"GOOD","name":"142/ER829NP","vin":"WME4513341K637610"},{"address":"Via dei Guarneri 19, 20141 Milano","coordinates":[9.20458,45.42631,0],"engineType":"CE","exterior":"GOOD","fuel":21,"interior":"UNACCEPTABLE","name":"179/ES178JF","vin":"WME4513341K637245"},{"address":"Via degli Odescalchi 19, 20148 Milano","coordinates":[9.13617,45.47892,0],"engineType":"CE","exterior":"GOOD","fuel":54,"interior":"GOOD","name":"248/ES202JF","vin":"WME4513341K637575"},{"address":"Via Enrico Falck 12, 20151 Milano (raggio 300m)","coordinates":[9.10133,45.49989,0],"engineType":"CE","exterior":"UNACCEPTABLE","fuel":27,"interior":"GOOD","name":"250/ES204JF","vin":"WME4513341K637654"},{"address":"Via Luigi Chiarelli 14 - 16, 20151 Milano (raggio 100m)","coordinates":[9.12237,45.49123,0],"engineType":"CE","exterior":"UNACCEPTABLE","fuel":96,"interior":"UNACCEPTABLE","name":"101/ER789NP","vin":"WME4513341K647237"},{"address":"Via Fetonte 21, 20151 Milano","coordinates":[9.12411,45.48048,0],"engineType":"CE","exterior":"GOOD","fuel":57,"interior":"GOOD","name":"211/ES274JF","vin":"WME4513341K639792"},{"address":"Via Ugo Mulas, 20128 Milano","coordinates":[9.24096,45.51825,0],"engineType":"CE","exterior":"GOOD","fuel":63,"interior":"GOOD","name":"235/ES237JF","vin":"WME4513341K638547"},{"address":"Viale Certosa 177, 20151 Milano","coordinates":[9.13528,45.49731,0],"engineType":"CE","exterior":"GOOD","fuel":27,"interior":"GOOD","name":"121/ER808NP","vin":"WME4513341K639686"},{"address":"Via Luigi Prinetti 19, 20127 Milano","coordinates":[9.22817,45.4983,0],"engineType":"CE","exterior":"GOOD","fuel":100,"interior":"GOOD","name":"011/ER700NP","vin":"WME4513341K638769"},{"address":"Via Francesco Cilea 2, 20151 Milano (raggio 100m)","coordinates":[9.10664,45.49764,0],"engineType":"CE","exterior":"GOOD","fuel":78,"interior":"GOOD","name":"182/ES010AE","vin":"WME4513341K638773"},{"address":"Via Giulio Bechi 7, 20126 Milano","coordinates":[9.22138,45.50705,0],"engineType":"CE","exterior":"GOOD","fuel":90,"interior":"GOOD","name":"176/ES278JF","vin":"WME4513341K639884"},{"address":"Via Agostino De Pretis 91 - 121, 20142 Milano (raggio 300m)","coordinates":[9.15387,45.42936,0],"engineType":"CE","exterior":"GOOD","fuel":100,"interior":"GOOD","name":"200/ES239JF","vin":"WME4513341K638657"},{"address":"Via Don Giovanni Calabria 25, 20132 Milano","coordinates":[9.24332,45.50068,0],"engineType":"CE","exterior":"GOOD","fuel":66,"interior":"GOOD","name":"103/ER791NP","vin":"WME4513341K639633"},{"address":"Via Ludovico di Breme 9 - 13, 20156 Milano (raggio 100m)","coordinates":[9.13943,45.49665,0],"engineType":"CE","exterior":"GOOD","fuel":100,"interior":"GOOD","name":"209/ES281JF","vin":"WME4513341K639915"},{"address":"Via degli Odescalchi 19, 20148 Milano","coordinates":[9.13618,45.47884,0],"engineType":"CE","exterior":"GOOD","fuel":100,"interior":"GOOD","name":"204/ES240JF","vin":"WME4513341K638711"},{"address":"Via Vergiate 3 - 5, 20151 Milano (raggio 100m)","coordinates":[9.11363,45.49861,0],"engineType":"CE","exterior":"UNACCEPTABLE","fuel":18,"interior":"UNACCEPTABLE","name":"196/ES241JF","vin":"WME4513341K638728"},{"address":"Piazzetta Andrea Alciato, 20161 Milano","coordinates":[9.17424,45.52846,0],"engineType":"CE","exterior":"GOOD","fuel":100,"interior":"GOOD","name":"007/ER696NP","vin":"WME4513341K638074"},{"address":"Via Longarone 40, 20157 Milano","coordinates":[9.14187,45.52001,0],"engineType":"CE","exterior":"GOOD","fuel":51,"interior":"GOOD","name":"230/ES155JF","vin":"WME4513341K636800"},{"address":"Via Guido Coppin 2, 20142 Milano","coordinates":[9.13421,45.44006,0],"engineType":"CE","exterior":"GOOD","fuel":42,"interior":"GOOD","name":"097/ER785NP","vin":"WME4513341K637787"},{"address":"Via Eleuterio Pagliano 48, 20149 Milano","coordinates":[9.14468,45.47356,0],"engineType":"CE","exterior":"GOOD","fuel":100,"interior":"GOOD","name":"195/ES205JF","vin":"WME4513341K637713"},{"address":"Via Pinerolo 20, 20151 Milano","coordinates":[9.11543,45.47824,0],"engineType":"CE","exterior":"UNACCEPTABLE","fuel":69,"interior":"GOOD","name":"140/ER827NP","vin":"WME4513341K637663"},{"address":"Via Ettore Ponti 41, 20143 Milano","coordinates":[9.15405,45.44192,0],"engineType":"CE","exterior":"UNACCEPTABLE","fuel":45,"interior":"UNACCEPTABLE","name":"009/ER698NP","vin":"WME4513341K638228"},{"address":"Via Val di Ledro 7, 20162 Milano","coordinates":[9.18896,45.51648,0],"engineType":"CE","exterior":"GOOD","fuel":51,"interior":"GOOD","name":"448/ES213JF","vin":"WME4513341K638133"},{"address":"Via delle Forze Armate 216, 20152 Milano","coordinates":[9.11237,45.46042,0],"engineType":"CE","exterior":"GOOD","fuel":48,"interior":"GOOD","name":"274/ES208JF","vin":"WME4513341K637914"},{"address":"Via Luigi Chiarelli 12, 20151 Milano","coordinates":[9.12192,45.49158,0],"engineType":"CE","exterior":"GOOD","fuel":84,"interior":"GOOD","name":"238/ES181JF","vin":"WME4513341K637319"},{"address":"Via Luigi Ornato 145, 20162 Milano","coordinates":[9.19132,45.52507,0],"engineType":"CE","exterior":"GOOD","fuel":36,"interior":"GOOD","name":"002/EN900HT","vin":"WME4513341K638517"},{"address":"Strada Statale Varesina, 20157 Milano","coordinates":[9.1313,45.51059,0],"engineType":"CE","exterior":"GOOD","fuel":75,"interior":"GOOD","name":"012/ER701NP","vin":"WME4513341K638689"},{"address":"Via Pinerolo 70, 20151 Milano","coordinates":[9.1144,45.48349,0],"engineType":"CE","exterior":"GOOD","fuel":57,"interior":"GOOD","name":"197/ES234JF","vin":"WME4513341K638411"},{"address":"Via Francesco De Lemene 26, 20151 Milano","coordinates":[9.13822,45.49377,0],"engineType":"CE","exterior":"GOOD","fuel":100,"interior":"GOOD","name":"138/ER825NP","vin":"WME4513341K639808"},{"address":"Via Enrico Panzacchi 3, 20123 Milano","coordinates":[9.17428,45.46509,0],"engineType":"CE","exterior":"UNACCEPTABLE","fuel":21,"interior":"GOOD","name":"005/ER694NP","vin":"WME4513341K638142"},{"address":"Via Flumendosa 31, 20132 Milano","coordinates":[9.24671,45.50548,0],"engineType":"CE","exterior":"GOOD","fuel":72,"interior":"GOOD","name":"063/ER752NP","vin":"WME4513341K637024"},{"address":"Via Appennini 187, 20151 Milano","coordinates":[9.09763,45.50515,0],"engineType":"CE","exterior":"GOOD","fuel":93,"interior":"GOOD","name":"225/ES158JF","vin":"WME4513341K636833"},{"address":"Via Alberto Cavalletto 2, 20161 Milano","coordinates":[9.17548,45.5137,0],"engineType":"CE","exterior":"GOOD","fuel":100,"interior":"GOOD","name":"206/ES267JF","vin":"WME4513341K639625"},{"address":"Via Nikolajevka 1, 20152 Milano (raggio 300m)","coordinates":[9.10643,45.45722,0],"engineType":"CE","exterior":"GOOD","fuel":100,"interior":"GOOD","name":"054/ER743NP","vin":"WME4513341K636682"},{"address":"Via Luigi Ornato 122 - 150, 20162 Milano (raggio 300m)","coordinates":[9.19224,45.52377,0],"engineType":"CE","exterior":"UNACCEPTABLE","fuel":51,"interior":"GOOD","name":"203/ES246JF","vin":"WME4513341K639374"},{"address":"Via Arturo Graf 41, 20157 Milano","coordinates":[9.14334,45.51324,0],"engineType":"CE","exterior":"UNACCEPTABLE","fuel":36,"interior":"GOOD","name":"026/ER715NP","vin":"WME4513341K637421"},{"address":"Via Romolo Gessi 20, 20146 Milano","coordinates":[9.15311,45.45842,0],"engineType":"CE","exterior":"GOOD","fuel":75,"interior":"UNACCEPTABLE","name":"027/ER716NP","vin":"WME4513341K639621"},{"address":"Via Varesina 45, 20156 Milano","coordinates":[9.14688,45.49625,0],"engineType":"CE","exterior":"UNACCEPTABLE","fuel":39,"interior":"UNACCEPTABLE","name":"215/ES266JF","vin":"WME4513341K639608"},{"address":"Via Pompeo Marchesi 30, 20153 Milano","coordinates":[9.10614,45.47127,0],"engineType":"CE","exterior":"GOOD","fuel":72,"interior":"GOOD","name":"220/ES251JF","vin":"WME4513341K639584"},{"address":"Viale Faenza 12, 20142 Milano","coordinates":[9.15238,45.43724,0],"engineType":"CE","exterior":"GOOD","fuel":57,"interior":"GOOD","name":"108/ER796NP","vin":"WME4513341K639493"},{"address":"Via Piero Bottoni 32, 20141 Milano","coordinates":[9.20994,45.42644,0],"engineType":"CE","exterior":"GOOD","fuel":63,"interior":"GOOD","name":"191/ES236JF","vin":"WME4513341K638508"},{"address":"Via Umberto Ceva, 20157 Milano","coordinates":[9.15597,45.51613,0],"engineType":"CE","exterior":"GOOD","fuel":54,"interior":"GOOD","name":"109/ER797NP","vin":"WME4513341K638249"},{"address":"Via Sebenico 5, 20124 Milano","coordinates":[9.19271,45.48772,0],"engineType":"CE","exterior":"UNACCEPTABLE","fuel":51,"interior":"GOOD","name":"202/ES265JF","vin":"WME4513341K639592"},{"address":"Via Medici 15, 20123 Milano","coordinates":[9.18068,45.46148,0],"engineType":"CE","exterior":"UNACCEPTABLE","fuel":54,"interior":"UNACCEPTABLE","name":"096/ER784NP","vin":"WME4513341K638677"},{"address":"Viale dell'Innovazione, 20126 Milano","coordinates":[9.21515,45.51829,0],"engineType":"CE","exterior":"GOOD","fuel":45,"interior":"GOOD","name":"090/ER779NP","vin":"WME4513341K638028"},{"address":"Via Comune Antico 47, 20125 Milano","coordinates":[9.20787,45.50623,0],"engineType":"CE","exterior":"GOOD","fuel":100,"interior":"GOOD","name":"077/ER766NP","vin":"WME4513341K638083"},{"address":"Alzaia Naviglio Pavese 262 - 280, 20142 Milano (raggio 300m)","coordinates":[9.16711,45.4251,0],"engineType":"CE","exterior":"GOOD","fuel":90,"interior":"GOOD","name":"013/ER702NP","vin":"WME4513341K638036"},{"address":"Via Scipio Slataper 12, 20125 Milano","coordinates":[9.1999,45.50033,0],"engineType":"CE","exterior":"UNACCEPTABLE","fuel":100,"interior":"GOOD","name":"226/ES147JF","vin":"WME4513341K636665"},{"address":"Via Antonio Cechov 43, 20151 Milano","coordinates":[9.1132,45.49517,0],"engineType":"CE","exterior":"GOOD","fuel":39,"interior":"GOOD","name":"004/ER294GZ","vin":"WME4513341K638423"},{"address":"Via Pietro Maroncelli 5, 20154 Milano","coordinates":[9.18363,45.48246,0],"engineType":"CE","exterior":"GOOD","fuel":54,"interior":"GOOD","name":"257/ES212JF","vin":"WME4513341K638106"},{"address":"Via Ruggero Leoncavallo 23, 20131 Milano","coordinates":[9.2257,45.49111,0],"engineType":"CE","exterior":"GOOD","fuel":48,"interior":"GOOD","name":"003/ER293GZ","vin":"WME4513341K638109"},{"address":"Via Carlo Armellini 6, 20161 Milano","coordinates":[9.17257,45.5146,0],"engineType":"CE","exterior":"GOOD","fuel":54,"interior":"GOOD","name":"092/ER780NP","vin":"WME4513341K639379"},{"address":"Via Eugenio Curiel, 20089 Rozzano","coordinates":[9.17355,45.40092,0],"engineType":"CE","exterior":"GOOD","fuel":69,"interior":"GOOD","name":"091/ER840NP","vin":"WME4513341K639556"},{"address":"Viale Famagosta 36, 20142 Milano","coordinates":[9.16125,45.43698,0],"engineType":"CE","exterior":"UNACCEPTABLE","fuel":93,"interior":"GOOD","name":"263/ES245JF","vin":"WME4513341K639331"},{"address":"Via Doberdò 18, 20126 Milano","coordinates":[9.2242,45.51903,0],"engineType":"CE","exterior":"GOOD","fuel":69,"interior":"GOOD","name":"087/ER776NP","vin":"WME4513341K637811"},{"address":"Via Aquila 2, 20134 Milano","coordinates":[9.24887,45.4711,0],"engineType":"CE","exterior":"GOOD","fuel":54,"interior":"GOOD","name":"210/ES232JF","vin":"WME4513341K638166"},{"address":"Viale Monza 355, 20126 Milano","coordinates":[9.2274,45.52168,0],"engineType":"CE","exterior":"UNACCEPTABLE","fuel":69,"interior":"UNACCEPTABLE","name":"356/ES294JF","vin":"WME4513341K646331"},{"address":"Via Elio Vittorini 28, 20138 Milano","coordinates":[9.26464,45.44438,0],"engineType":"CE","exterior":"UNACCEPTABLE","fuel":69,"interior":"UNACCEPTABLE","name":"284/ES398JF","vin":"WME4513341K647829"},{"address":"Via Eugenio Montale 116, 20151 Milano","coordinates":[9.11727,45.48853,0],"engineType":"CE","exterior":"GOOD","fuel":63,"interior":"GOOD","name":"089/ER778NP","vin":"WME4513341K646289"},{"address":"Via Giovanni Durando 15, 20158 Milano","coordinates":[9.16385,45.50476,0],"engineType":"CE","exterior":"UNACCEPTABLE","fuel":30,"interior":"GOOD","name":"016/ER705NP","vin":"WME4513341K646574"},{"address":"Via Bernardino Zendrini 11, 20147 Milano","coordinates":[9.12657,45.4616,0],"engineType":"CE","exterior":"GOOD","fuel":27,"interior":"UNACCEPTABLE","name":"107/ER795NP","vin":"WME4513341K645353"},{"address":"Via Domenico Trentacoste 15, 20134 Milano","coordinates":[9.24445,45.47333,0],"engineType":"CE","exterior":"GOOD","fuel":39,"interior":"GOOD","name":"093/ER781NP","vin":"WME4513341K645421"},{"address":"Via Guido Martinelli 26, 20142 Milano","coordinates":[9.13457,45.44142,0],"engineType":"CE","exterior":"GOOD","fuel":66,"interior":"GOOD","name":"085/ER774NP","vin":"WME4513341K645169"},{"address":"Via Simone Saint Bon 8, 20147 Milano","coordinates":[9.12054,45.46033,0],"engineType":"CE","exterior":"GOOD","fuel":87,"interior":"GOOD","name":"023/ER712NP","vin":"WME4513341K645308"},{"address":"Via Angelo Brunetti 19, 20156 Milano","coordinates":[9.13265,45.50477,0],"engineType":"CE","exterior":"GOOD","fuel":81,"interior":"GOOD","name":"291/ES309JF","vin":"WME4513341K645276"},{"address":"Via Giuseppe De Notaris 43, 20128 Milano","coordinates":[9.24311,45.51076,0],"engineType":"CE","exterior":"UNACCEPTABLE","fuel":63,"interior":"GOOD","name":"074/ER763NP","vin":"WME4513341K645783"},{"address":"Via Cesare Lombroso 54, 20137 Milano (raggio 100m)","coordinates":[9.23203,45.45537,0],"engineType":"CE","exterior":"UNACCEPTABLE","fuel":33,"interior":"UNACCEPTABLE","name":"069/ER758NP","vin":"WME4513341K645474"},{"address":"Via Agostino De Pretis 33, 20142 Milano","coordinates":[9.15133,45.43007,0],"engineType":"CE","exterior":"GOOD","fuel":72,"interior":"GOOD","name":"080/ER769NP","vin":"WME4513341K643168"},{"address":"Via Gottlieb Wilhelm Daimler, 20151 Milano","coordinates":[9.10009,45.50764,0],"engineType":"CE","exterior":"GOOD","fuel":100,"interior":"GOOD","name":"255/ES209JF","vin":"WME4513341K637949"},{"address":"Via Alberto Savinio, 20138 Milano","coordinates":[9.24315,45.43859,0],"engineType":"CE","exterior":"GOOD","fuel":45,"interior":"GOOD","name":"110/ER798NP","vin":"WME4513341K638491"},{"address":"Via Pietro Bembo 17, 20161 Milano","coordinates":[9.17516,45.51758,0],"engineType":"CE","exterior":"GOOD","fuel":84,"interior":"GOOD","name":"445/ES316JF","vin":"WME4513341K645449"},{"address":"Viale Fulvio Testi, 20125 Milano","coordinates":[9.20272,45.51016,0],"engineType":"CE","exterior":"GOOD","fuel":100,"interior":"GOOD","name":"327/ES313JF","vin":"WME4513341K645388"},{"address":"Via Valsesia 27 - 29, 20152 Milano (raggio 300m)","coordinates":[9.10268,45.45284,0],"engineType":"CE","exterior":"GOOD","fuel":100,"interior":"GOOD","name":"334/ES304JF","vin":"WME4513341K645207"},{"address":"Via Mac Mahon 116, 20156 Milano","coordinates":[9.15264,45.49808,0],"engineType":"CE","exterior":"GOOD","fuel":90,"interior":"GOOD","name":"387/ES425JF","vin":"WME4513341K647245"},{"address":"Via Vincenzo Toffetti 8, 20139 Milano","coordinates":[9.23534,45.43591,0],"engineType":"CE","exterior":"GOOD","fuel":51,"interior":"GOOD","name":"410/ES431JF","vin":"WME4513341K647142"},{"address":"Via delle Forze Armate 254, 20152 Milano","coordinates":[9.10639,45.45994,0],"engineType":"CE","exterior":"UNACCEPTABLE","fuel":48,"interior":"GOOD","name":"341/ES361JF","vin":"WME4513341K646681"},{"address":"Via Edoardo Bonardi 7, 20133 Milano","coordinates":[9.22792,45.47942,0],"engineType":"CE","exterior":"GOOD","fuel":51,"interior":"GOOD","name":"325/ES353JF","vin":"WME4513341K646524"},{"address":"Via Carlo Boncompagni 99, 20139 Milano","coordinates":[9.23639,45.4359,0],"engineType":"CE","exterior":"GOOD","fuel":36,"interior":"GOOD","name":"390/ES413JF","vin":"WME4513341K647028"},{"address":"Via Lucca 25 - 33, 20152 Milano (raggio 300m)","coordinates":[9.10983,45.45508,0],"engineType":"CE","exterior":"UNACCEPTABLE","fuel":57,"interior":"GOOD","name":"365/ES414JF","vin":"WME4513341K647038"},{"address":"Via Luigi Canonica 72, 20154 Milano","coordinates":[9.17071,45.48069,0],"engineType":"CE","exterior":"GOOD","fuel":100,"interior":"GOOD","name":"344/ES436JF","vin":"WME4513341K647669"},{"address":"Via Eugenio Medea, 20138 Milano","coordinates":[9.24748,45.43261,0],"engineType":"CE","exterior":"GOOD","fuel":27,"interior":"GOOD","name":"086/ER775NP","vin":"WME4513341K647906"},{"address":"Via Guido Ucelli di Nemi 5, 20138 Milano","coordinates":[9.2642,45.44232,0],"engineType":"CE","exterior":"GOOD","fuel":78,"interior":"GOOD","name":"354/ES359JF","vin":"WME4513341K646649"},{"address":"Via Valle Antrona 2, 20152 Milano","coordinates":[9.08981,45.45772,0],"engineType":"CE","exterior":"GOOD","fuel":100,"interior":"GOOD","name":"393/ES346JF","vin":"WME4513341K646438"},{"address":"Via Alessandro Litta Modignani 93, 20161 Milano","coordinates":[9.15343,45.52155,0],"engineType":"CE","exterior":"GOOD","fuel":100,"interior":"GOOD","name":"379/ES348JF","vin":"WME4513341K646470"},{"address":"Via Elio Vittorini 26, 20138 Milano","coordinates":[9.26423,45.44446,0],"engineType":"CE","exterior":"UNACCEPTABLE","fuel":100,"interior":"GOOD","name":"446/ES343JF","vin":"WME4513341K646358"},{"address":"Via Varesina 185, 20156 Milano","coordinates":[9.13752,45.50443,0],"engineType":"CE","exterior":"UNACCEPTABLE","fuel":72,"interior":"GOOD","name":"330/ES378JF","vin":"WME4513341K647470"},{"address":"Via Mac Mahon 75, 20155 Milano","coordinates":[9.15868,45.4932,0],"engineType":"CE","exterior":"UNACCEPTABLE","fuel":100,"interior":"UNACCEPTABLE","name":"349/ES317JF","vin":"WME4513341K645452"},{"address":"Via Giovanni Livraghi 4, 20126 Milano","coordinates":[9.22509,45.51607,0],"engineType":"CE","exterior":"GOOD","fuel":48,"interior":"GOOD","name":"371/ES252JF","vin":"WME4513341K644481"},{"address":"Viale delle Rimembranze di Greco 46, 20125 Milano","coordinates":[9.21172,45.50064,0],"engineType":"CE","exterior":"GOOD","fuel":36,"interior":"GOOD","name":"402/ES255JF","vin":"WME4513341K644517"},{"address":"Via Ugo Betti 36, 20151 Milano","coordinates":[9.11216,45.49227,0],"engineType":"CE","exterior":"GOOD","fuel":78,"interior":"GOOD","name":"408/ES253JF","vin":"WME4513341K644488"},{"address":"Via Appennini 171, 20151 Milano","coordinates":[9.09963,45.50558,0],"engineType":"CE","exterior":"GOOD","fuel":54,"interior":"GOOD","name":"396/ES264JF","vin":"WME4513341K644973"},{"address":"Via Ugo Betti 119, 20151 Milano","coordinates":[9.1076,45.49435,0],"engineType":"CE","exterior":"GOOD","fuel":72,"interior":"GOOD","name":"094/ER782NP","vin":"WME4513341K645839"},{"address":"Viale Caterina da Forlì 22, 20146 Milano","coordinates":[9.14461,45.46033,0],"engineType":"CE","exterior":"GOOD","fuel":42,"interior":"GOOD","name":"298/ES371JF","vin":"WME4513341K647344"},{"address":"Via Val d'Ossola 8, 20162 Milano","coordinates":[9.18775,45.51522,0],"engineType":"CE","exterior":"GOOD","fuel":60,"interior":"GOOD","name":"295/ES377JF","vin":"WME4513341K647459"},{"address":"Via Angelo Poliziano 12, 20154 Milano","coordinates":[9.16528,45.48348,0],"engineType":"CE","exterior":"GOOD","fuel":30,"interior":"GOOD","name":"423/ES433JF","vin":"WME4513341K647173"},{"address":"Via Eugenio Barsanti 10, 20143 Milano","coordinates":[9.16644,45.44942,0],"engineType":"CE","exterior":"GOOD","fuel":69,"interior":"GOOD","name":"440/ES290JF","vin":"WME4513341K646074"},{"address":"Via Gaetano Fichera 41, 20151 Milano","coordinates":[9.09982,45.50018,0],"engineType":"CE","exterior":"UNACCEPTABLE","fuel":57,"interior":"UNACCEPTABLE","name":"429/ES411JF","vin":"WME4513341K646988"},{"address":"Via Eugenio Bellosio 4, 20138 Milano","coordinates":[9.24248,45.46168,0],"engineType":"CE","exterior":"GOOD","fuel":39,"interior":"GOOD","name":"434/ES416JF","vin":"WME4513341K647076"},{"address":"Via Lazzaro Palazzi 9, 20124 Milano","coordinates":[9.20481,45.47692,0],"engineType":"CE","exterior":"UNACCEPTABLE","fuel":90,"interior":"UNACCEPTABLE","name":"374/ES369JF","vin":"WME4513341K646775"},{"address":"Via Edgardo Moltoni 7 - 11, 20152 Milano (raggio 100m)","coordinates":[9.06693,45.45215,0],"engineType":"CE","exterior":"GOOD","fuel":100,"interior":"GOOD","name":"292/ES381JF","vin":"WME4513341K647512"},{"address":"Via Pistoia 8, 20152 Milano","coordinates":[9.09175,45.46349,0],"engineType":"CE","exterior":"GOOD","fuel":100,"interior":"GOOD","name":"303/ES421JF","vin":"WME4513341K648001"},{"address":"Via dei Ciclamini 17, 20147 Milano","coordinates":[9.1277,45.45637,0],"engineType":"CE","exterior":"GOOD","fuel":78,"interior":"GOOD","name":"300/ES429JF","vin":"WME4513341K647315"},{"address":"Via Roberto Tremelloni, 20128 Milano","coordinates":[9.23558,45.51496,0],"engineType":"CE","exterior":"GOOD","fuel":63,"interior":"GOOD","name":"302/ES422JF","vin":"WME4513341K648366"},{"address":"Via Giuseppe De Notaris 43, 20128 Milano","coordinates":[9.24309,45.51078,0],"engineType":"CE","exterior":"GOOD","fuel":66,"interior":"GOOD","name":"308/ES418JF","vin":"WME4513341K648026"},{"address":"Via Mac Mahon 88, 20155 Milano","coordinates":[9.15902,45.49318,0],"engineType":"CE","exterior":"GOOD","fuel":100,"interior":"GOOD","name":"285/ES435JF","vin":"WME4513341K647228"},{"address":"Via Abbondio Sangiorgio 13, 20145 Milano","coordinates":[9.16762,45.47586,0],"engineType":"CE","exterior":"GOOD","fuel":87,"interior":"GOOD","name":"437/ES394JF","vin":"WME4513341K647745"},{"address":"Via Carlo Parea 17, 20138 Milano","coordinates":[9.26334,45.44327,0],"engineType":"CE","exterior":"GOOD","fuel":57,"interior":"GOOD","name":"082/ER771NP","vin":"WME4513341K645884"},{"address":"Corso Cristoforo Colombo 6, 20144 Milano","coordinates":[9.17138,45.4544,0],"engineType":"CE","exterior":"UNACCEPTABLE","fuel":63,"interior":"UNACCEPTABLE","name":"361/ES423JF","vin":"WME4513341K648444"},{"address":"Via Oglio 16, 20139 Milano","coordinates":[9.21861,45.44034,0],"engineType":"CE","exterior":"UNACCEPTABLE","fuel":78,"interior":"UNACCEPTABLE","name":"411/ES289JF","vin":"WME4513341K646062"},{"address":"Via Pistoia 10, 20152 Milano","coordinates":[9.09156,45.46344,0],"engineType":"CE","exterior":"UNACCEPTABLE","fuel":69,"interior":"UNACCEPTABLE","name":"430/ES355JF","vin":"WME4513341K646590"},{"address":"Via Ferrante Aporti 62, 20125 Milano","coordinates":[9.21552,45.49554,0],"engineType":"CE","exterior":"GOOD","fuel":51,"interior":"GOOD","name":"436/ES349JF","vin":"WME4513341K646484"},{"address":"Via Castel Morrone 2, 20129 Milano","coordinates":[9.21478,45.46835,0],"engineType":"CE","exterior":"GOOD","fuel":100,"interior":"GOOD","name":"432/ES347JF","vin":"WME4513341K646442"},{"address":"Via Giovanni Ambrogio De Predis 9, 20156 Milano","coordinates":[9.15118,45.49744,0],"engineType":"CE","exterior":"UNACCEPTABLE","fuel":33,"interior":"GOOD","name":"435/ES342JF","vin":"WME4513341K646350"},{"address":"Via Tortona 12, 20144 Milano","coordinates":[9.16871,45.45377,0],"engineType":"CE","exterior":"GOOD","fuel":100,"interior":"GOOD","name":"431/ES375JF","vin":"WME4513341K647399"},{"address":"Via Gaudenzio Fantoli 29, 20138 Milano","coordinates":[9.2582,45.45442,0],"engineType":"CE","exterior":"GOOD","fuel":30,"interior":"GOOD","name":"075/ER764NP","vin":"WME4513341K645600"},{"address":"Via Carolina Invernizio 1 - 15, 20157 Milano (raggio 100m)","coordinates":[9.13517,45.51402,0],"engineType":"CE","exterior":"GOOD","fuel":96,"interior":"GOOD","name":"438/ES224JF","vin":"WME4513341K644351"},{"address":"Via Ugo Ojetti 33 - 43, 20151 Milano (raggio 100m)","coordinates":[9.11164,45.49472,0],"engineType":"CE","exterior":"GOOD","fuel":57,"interior":"GOOD","name":"439/ES319JF","vin":"WME4513341K645521"},{"address":"Via Patroclo, 20151 Milano","coordinates":[9.12138,45.47923,0],"engineType":"CE","exterior":"GOOD","fuel":57,"interior":"GOOD","name":"433/ES318JF","vin":"WME4513341K645499"},{"address":"Via Anselmo da Baggio 58, 20153 Milano","coordinates":[9.08806,45.46402,0],"engineType":"CE","exterior":"UNACCEPTABLE","fuel":100,"interior":"GOOD","name":"321/ES132JF","vin":"WME4513341K645075"},{"address":"Via Madre Anna Eugenia Picco 6, 20132 Milano","coordinates":[9.24076,45.50097,0],"engineType":"CE","exterior":"GOOD","fuel":90,"interior":"UNACCEPTABLE","name":"314/ES299JF","vin":"WME4513341K645065"},{"address":"Via Val di Ledro 7, 20162 Milano","coordinates":[9.18863,45.51698,0],"engineType":"CE","exterior":"GOOD","fuel":75,"interior":"GOOD","name":"316/ES263JF","vin":"WME4513341K644966"},{"address":"Via Gianfranco Zuretti 59 - 61, 20125 Milano (raggio 100m)","coordinates":[9.21066,45.49646,0],"engineType":"CE","exterior":"GOOD","fuel":27,"interior":"GOOD","name":"312/ES296JF","vin":"WME4513341K645035"},{"address":"Via Venezuela 4, 20151 Milano","coordinates":[9.12463,45.49448,0],"engineType":"CE","exterior":"GOOD","fuel":100,"interior":"GOOD","name":"318/ES306JF","vin":"WME4513341K645228"},{"address":"Via Marcantonio Colonna 43, 20149 Milano","coordinates":[9.15061,45.4885,0],"engineType":"CE","exterior":"GOOD","fuel":75,"interior":"GOOD","name":"329/ES337JF","vin":"WME4513341K645911"},{"address":"Via Matteo Civitali 68, 20148 Milano","coordinates":[9.12921,45.47486,0],"engineType":"CE","exterior":"UNACCEPTABLE","fuel":63,"interior":"UNACCEPTABLE","name":"340/ES338JF","vin":"WME4513341K645939"},{"address":"Via Cusani 6, 20121 Milano","coordinates":[9.1848,45.46882,0],"engineType":"CE","exterior":"GOOD","fuel":39,"interior":"GOOD","name":"326/ES334JF","vin":"WME4513341K645792"},{"address":"Strada Statale del Sempione, 20151 Milano","coordinates":[9.12287,45.50068,0],"engineType":"CE","exterior":"GOOD","fuel":66,"interior":"GOOD","name":"331/ES321JF","vin":"WME4513341K645557"},{"address":"Via delle Forze Armate 214, 20152 Milano","coordinates":[9.11268,45.46041,0],"engineType":"CE","exterior":"UNACCEPTABLE","fuel":60,"interior":"UNACCEPTABLE","name":"323/ES329JF","vin":"WME4513341K645707"},{"address":"Via Giovanni Battista Bertini 3, 20154 Milano","coordinates":[9.17008,45.48127,0],"engineType":"CE","exterior":"GOOD","fuel":45,"interior":"GOOD","name":"418/ES291JF","vin":"WME4513341K646120"},{"address":"Via Ettore Romagnoli 7, 20146 Milano","coordinates":[9.14658,45.45507,0],"engineType":"CE","exterior":"UNACCEPTABLE","fuel":84,"interior":"GOOD","name":"286/ES372JF","vin":"WME4513341K647348"},{"address":"Via Guido Martinelli 52, 20142 Milano","coordinates":[9.13154,45.44031,0],"engineType":"CE","exterior":"GOOD","fuel":24,"interior":"GOOD","name":"412/ES403JF","vin":"WME4513341K646846"},{"address":"Viale Sarca 207, 20126 Milano","coordinates":[9.21022,45.51859,0],"engineType":"CE","exterior":"GOOD","fuel":39,"interior":"UNACCEPTABLE","name":"350/ES367JF","vin":"WME4513341K646748"},{"address":"Corso Ventidue Marzo 4, 20129 Milano","coordinates":[9.20836,45.46219,0],"engineType":"CE","exterior":"UNACCEPTABLE","fuel":24,"interior":"UNACCEPTABLE","name":"290/ES373JF","vin":"WME4513341K647351"},{"address":"Via Giovanni Battista Sammartini 73, 20125 Milano","coordinates":[9.21198,45.49551,0],"engineType":"CE","exterior":"GOOD","fuel":66,"interior":"GOOD","name":"424/ES356JF","vin":"WME4513341K646623"},{"address":"Via Ambrogio da Fossano Bergognone 63, 20144 Milano","coordinates":[9.16583,45.45079,0],"engineType":"CE","exterior":"UNACCEPTABLE","fuel":51,"interior":"UNACCEPTABLE","name":"304/ES419JF","vin":"WME4513341K648063"},{"address":"Via Ponale 51 - 65, 20162 Milano (raggio 100m)","coordinates":[9.2058,45.5236,0],"engineType":"CE","exterior":"GOOD","fuel":39,"interior":"GOOD","name":"409/ES322JF","vin":"WME4513341K645563"},{"address":"Corso di Porta Nuova 21, 20121 Milano","coordinates":[9.19213,45.47785,0],"engineType":"CE","exterior":"GOOD","fuel":24,"interior":"GOOD","name":"392/ES401JF","vin":"WME4513341K647941"},{"address":"Via Paolo Lomazzo 17, 20154 Milano","coordinates":[9.17249,45.4818,0],"engineType":"CE","exterior":"UNACCEPTABLE","fuel":33,"interior":"UNACCEPTABLE","name":"389/ES420JF","vin":"WME4513341K648213"},{"address":"Via Marignano, 20138 Milano","coordinates":[9.25812,45.43066,0],"engineType":"CE","exterior":"GOOD","fuel":96,"interior":"GOOD","name":"036/ER725NP","vin":"WME4513341K645990"},{"address":"Via Fratelli Morelli 6, 20153 Milano","coordinates":[9.07686,45.49329,0],"engineType":"CE","exterior":"GOOD","fuel":36,"interior":"UNACCEPTABLE","name":"388/ES404JF","vin":"WME4513341K646863"},{"address":"Via Thaon di Revel Genova 15, 20159 Milano","coordinates":[9.18827,45.49292,0],"engineType":"CE","exterior":"GOOD","fuel":69,"interior":"GOOD","name":"358/ES351JF","vin":"WME4513341K646497"},{"address":"Via Mario Borsa 63, 20151 Milano (raggio 300m)","coordinates":[9.09725,45.50409,0],"engineType":"CE","exterior":"UNACCEPTABLE","fuel":100,"interior":"GOOD","name":"336/ES339JF","vin":"WME4513341K645968"},{"address":"Via Doberdò 36, 20126 Milano","coordinates":[9.22188,45.51957,0],"engineType":"CE","exterior":"GOOD","fuel":81,"interior":"GOOD","name":"355/ES354JF","vin":"WME4513341K646559"},{"address":"Via Bartolomeo Sestini 29, 20161 Milano","coordinates":[9.17436,45.51824,0],"engineType":"CE","exterior":"GOOD","fuel":100,"interior":"GOOD","name":"347/ES360JF","vin":"WME4513341K646662"},{"address":"Via Alessandro Scanini 70, 20153 Milano","coordinates":[9.09063,45.46903,0],"engineType":"CE","exterior":"GOOD","fuel":27,"interior":"GOOD","name":"373/ES380JF","vin":"WME4513341K647488"},{"address":"Via Statuto 17, 20121 Milano","coordinates":[9.18551,45.4767,0],"engineType":"CE","exterior":"UNACCEPTABLE","fuel":57,"interior":"GOOD","name":"421/ES386JF","vin":"WME4513341K647567"},{"address":"Via Giuseppe Luigi Lagrange 7, 20143 Milano","coordinates":[9.17848,45.4489,0],"engineType":"CE","exterior":"GOOD","fuel":21,"interior":"GOOD","name":"370/ES376JF","vin":"WME4513341K647454"},{"address":"Viale Giovanni Suzzani 66, 20162 Milano","coordinates":[9.19908,45.50866,0],"engineType":"CE","exterior":"GOOD","fuel":27,"interior":"GOOD","name":"294/ES385JF","vin":"WME4513341K647564"},{"address":"Via Caio Mario 19, 20153 Milano","coordinates":[9.08714,45.47871,0],"engineType":"CE","exterior":"UNACCEPTABLE","fuel":100,"interior":"UNACCEPTABLE","name":"288/ES383JF","vin":"WME4513341K647521"},{"address":"Via Elia Lombardini 19, 20143 Milano","coordinates":[9.16409,45.44912,0],"engineType":"CE","exterior":"GOOD","fuel":21,"interior":"GOOD","name":"038/ER727NP","vin":"WME4513341K645440"},{"address":"Via Antonio Vallisneri 10, 20133 Milano","coordinates":[9.23174,45.4815,0],"engineType":"CE","exterior":"UNACCEPTABLE","fuel":45,"interior":"UNACCEPTABLE","name":"345/ES328JF","vin":"WME4513341K645688"},{"address":"Via Germana De Stael, 20158 Milano","coordinates":[9.1752,45.50629,0],"engineType":"CE","exterior":"GOOD","fuel":100,"interior":"GOOD","name":"362/ES215JF","vin":"WME4513341K643543"},{"address":"Via Massimiano 16, 20134 Milano","coordinates":[9.24421,45.48337,0],"engineType":"CE","exterior":"GOOD","fuel":78,"interior":"GOOD","name":"405/ES219JF","vin":"WME4513341K644107"},{"address":"Via San Nicolao 13, 20123 Milano","coordinates":[9.17739,45.46728,0],"engineType":"CE","exterior":"UNACCEPTABLE","fuel":60,"interior":"GOOD","name":"416/ES218JF","vin":"WME4513341K644034"},{"address":"Via Valsugana 16, 20139 Milano","coordinates":[9.2108,45.44332,0],"engineType":"CE","exterior":"GOOD","fuel":42,"interior":"GOOD","name":"420/ES256JF","vin":"WME4513341K644550"},{"address":"Via San Colombano 2, 20142 Milano","coordinates":[9.12669,45.43912,0],"engineType":"CE","exterior":"GOOD","fuel":78,"interior":"GOOD","name":"375/ES223JF","vin":"WME4513341K644343"},{"address":"Via Alessandro Pestalozza 14, 20131 Milano","coordinates":[9.22275,45.48176,0],"engineType":"CE","exterior":"GOOD","fuel":63,"interior":"GOOD","name":"353/ES332JF","vin":"WME4513341K645752"},{"address":"Via Lampugnano 28, 20151 Milano","coordinates":[9.11357,45.4907,0],"engineType":"CE","exterior":"GOOD","fuel":63,"interior":"GOOD","name":"380/ES257JF","vin":"WME4513341K644775"},{"address":"Via Gaudenzio Fantoli 29, 20138 Milano","coordinates":[9.25803,45.45441,0],"engineType":"CE","exterior":"GOOD","fuel":100,"interior":"GOOD","name":"426/ES258JF","vin":"WME4513341K644847"},{"address":"Viale Monte Ceneri 34 - 64, 20155 Milano (raggio 100m)","coordinates":[9.15376,45.49166,0],"engineType":"CE","exterior":"GOOD","fuel":100,"interior":"GOOD","name":"401/ES308JF","vin":"WME4513341K645261"},{"address":"Via del Burchiello, 20145 Milano","coordinates":[9.15867,45.46859,0],"engineType":"CE","exterior":"UNACCEPTABLE","fuel":51,"interior":"UNACCEPTABLE","name":"296/ES227JF","vin":"WME4513341K644399"},{"address":"Via Andrea e Pietro Cascella, 20138 Milano","coordinates":[9.24218,45.43806,0],"engineType":"CE","exterior":"GOOD","fuel":57,"interior":"GOOD","name":"044/ER733NP","vin":"WME4513341K646614"},{"address":"Via Giacomo Manzù, 20138 Milano","coordinates":[9.24172,45.43861,0],"engineType":"CE","exterior":"GOOD","fuel":100,"interior":"GOOD","name":"414/ES430JF","vin":"WME4513341K647122"},{"address":"Via Novate 8, 20161 Milano","coordinates":[9.16023,45.53155,0],"engineType":"CE","exterior":"GOOD","fuel":100,"interior":"GOOD","name":"145/ER832NP","vin":"WME4513341K647110"},{"address":"Via Roberto Tremelloni, 20128 Milano","coordinates":[9.22995,45.51423,0],"engineType":"CE","exterior":"GOOD","fuel":24,"interior":"GOOD","name":"120/ER807NP","vin":"WME4513341K647987"},{"address":"Via Ambrogio Portaluppi 8, 20143 Milano","coordinates":[9.15353,45.44008,0],"engineType":"CE","exterior":"GOOD","fuel":100,"interior":"GOOD","name":"070/ER759NP","vin":"WME4513341K646285"},{"address":"Via Gottlieb Wilhelm Daimler, 20151 Milano","coordinates":[9.10039,45.50792,0],"engineType":"CE","exterior":"GOOD","fuel":100,"interior":"GOOD","name":"045/ER734NP","vin":"WME4513341K646821"},{"address":"Via Carlo Amoretti 15, 20157 Milano","coordinates":[9.13744,45.51893,0],"engineType":"CE","exterior":"GOOD","fuel":100,"interior":"GOOD","name":"052/ER741NP","vin":"WME4513341K646836"},{"address":"Via Luigi Zoja 9, 20153 Milano","coordinates":[9.10654,45.47426,0],"engineType":"CE","exterior":"UNACCEPTABLE","fuel":100,"interior":"UNACCEPTABLE","name":"043/ER732NP","vin":"WME4513341K646362"},{"address":"Viale Romagna 66, 20133 Milano","coordinates":[9.22389,45.47665,0],"engineType":"CE","exterior":"GOOD","fuel":54,"interior":"GOOD","name":"118/ER805NP","vin":"WME4513341K646396"},{"address":"Via Piero Bottoni 32, 20141 Milano","coordinates":[9.20979,45.42673,0],"engineType":"CE","exterior":"UNACCEPTABLE","fuel":84,"interior":"GOOD","name":"040/ER729NP","vin":"WME4513341K646552"},{"address":"Via Abelardo Pecorini 6, 20138 Milano","coordinates":[9.24827,45.46029,0],"engineType":"CE","exterior":"GOOD","fuel":78,"interior":"GOOD","name":"014/ES514AE","vin":"WME4513341K646140"},{"address":"Via Luigi Sacco 4, 20149 Milano","coordinates":[9.15127,45.46584,0],"engineType":"CE","exterior":"UNACCEPTABLE","fuel":66,"interior":"UNACCEPTABLE","name":"039/ER728NP","vin":"WME4513341K646656"},{"address":"Via Siusi 14, 20132 Milano","coordinates":[9.23424,45.4932,0],"engineType":"CE","exterior":"GOOD","fuel":57,"interior":"UNACCEPTABLE","name":"066/ER755NP","vin":"WME4513341K647599"},{"address":"Via Cardinale Tosi, 20152 Milano","coordinates":[9.11423,45.46632,0],"engineType":"CE","exterior":"GOOD","fuel":100,"interior":"GOOD","name":"060/ER749NP","vin":"WME4513341K645651"},{"address":"Via Gottlieb Wilhelm Daimler, 20151 Milano","coordinates":[9.10028,45.50784,0],"engineType":"CE","exterior":"GOOD","fuel":100,"interior":"GOOD","name":"280/ES330JF","vin":"WME4513341K645717"},{"address":"Via Derganino 10, 20158 Milano","coordinates":[9.16946,45.50061,0],"engineType":"CE","exterior":"UNACCEPTABLE","fuel":54,"interior":"UNACCEPTABLE","name":"282/ES324JF","vin":"WME4513341K645594"},{"address":"Via Enrico Cialdini 109, 20161 Milano","coordinates":[9.16946,45.51507,0],"engineType":"CE","exterior":"GOOD","fuel":60,"interior":"GOOD","name":"050/ER739NP","vin":"WME4513341K645740"},{"address":"Via Francesco Cilea 90 - 100, 20151 Milano (raggio 300m)","coordinates":[9.1022,45.49615,0],"engineType":"CE","exterior":"GOOD","fuel":100,"interior":"GOOD","name":"021/ER710NP","vin":"WME4513341K644513"},{"address":"Via Palatino 15, 20151 Milano","coordinates":[9.13066,45.47856,0],"engineType":"CE","exterior":"GOOD","fuel":48,"interior":"GOOD","name":"062/ER751NP","vin":"WME4513341K645093"},{"address":"Via Pigello Portinari 1, 20125 Milano","coordinates":[9.21045,45.50232,0],"engineType":"CE","exterior":"GOOD","fuel":57,"interior":"GOOD","name":"061/ER750NP","vin":"WME4513341K644817"},{"address":"Via Vipiteno 3, 20128 Milano","coordinates":[9.2364,45.51269,0],"engineType":"CE","exterior":"GOOD","fuel":72,"interior":"GOOD","name":"020/ER709NP","vin":"WME4513341K644528"},{"address":"Via Benigno Crespi 43, 20159 Milano","coordinates":[9.18508,45.50207,0],"engineType":"CE","exterior":"GOOD","fuel":81,"interior":"GOOD","name":"033/ER722NP","vin":"WME4513341K644082"},{"address":"Via San Paolino 28, 20142 Milano","coordinates":[9.16209,45.42961,0],"engineType":"CE","exterior":"GOOD","fuel":30,"interior":"GOOD","name":"034/ER723NP","vin":"WME4513341K647225"},{"address":"Via Carlo Boncompagni 51, 20139 Milano","coordinates":[9.23034,45.4386,0],"engineType":"CE","exterior":"GOOD","fuel":57,"interior":"GOOD","name":"269/ES350JF","vin":"WME4513341K646896"},{"address":"Via Dracone 19, 20126 Milano","coordinates":[9.22132,45.51024,0],"engineType":"CE","exterior":"GOOD","fuel":48,"interior":"GOOD","name":"030/ER719NP","vin":"WME4513341K647189"},{"address":"Via Valenza 11, 20144 Milano","coordinates":[9.16838,45.45082,0],"engineType":"CE","exterior":"GOOD","fuel":45,"interior":"GOOD","name":"277/ES368JF","vin":"WME4513341K646766"},{"address":"Via San Colombano 2, 20142 Milano","coordinates":[9.12659,45.43918,0],"engineType":"CE","exterior":"GOOD","fuel":100,"interior":"GOOD","name":"024/ER713NP","vin":"WME4513341K647095"},{"address":"Via Voltri, 20143 Milano","coordinates":[9.15447,45.43671,0],"engineType":"CE","exterior":"GOOD","fuel":100,"interior":"GOOD","name":"022/ER711NP","vin":"WME4513341K647850"},{"address":"Via Giovanni Pacini 27, 20131 Milano","coordinates":[9.2281,45.48205,0],"engineType":"CE","exterior":"GOOD","fuel":42,"interior":"GOOD","name":"068/ER757NP","vin":"WME4513341K647922"},{"address":"Via Federico Chopin 29, 20141 Milano","coordinates":[9.20607,45.42826,0],"engineType":"CE","exterior":"UNACCEPTABLE","fuel":33,"interior":"UNACCEPTABLE","name":"042/ER731NP","vin":"WME4513341K647685"},{"address":"Via Palatino 18, 20148 Milano","coordinates":[9.13093,45.47855,0],"engineType":"CE","exterior":"GOOD","fuel":75,"interior":"GOOD","name":"032/ER721NP","vin":"WME4513341K647689"},{"address":"Via Ugo Ojetti 51, 20151 Milano","coordinates":[9.11015,45.49527,0],"engineType":"CE","exterior":"GOOD","fuel":54,"interior":"GOOD","name":"019/ER708NP","vin":"WME4513341K647549"},{"address":"Via Giuseppe Bottelli 4, 20125 Milano","coordinates":[9.21037,45.50326,0],"engineType":"CE","exterior":"GOOD","fuel":84,"interior":"GOOD","name":"278/ES410JF","vin":"WME4513341K646955"},{"address":"Via Celestino IV 2, 20123 Milano","coordinates":[9.18195,45.45983,0],"engineType":"CE","exterior":"GOOD","fuel":21,"interior":"UNACCEPTABLE","name":"272/ES382JF","vin":"WME4513341K647535"},{"address":"Via Ernesto Breda 142, 20126 Milano","coordinates":[9.22033,45.51746,0],"engineType":"CE","exterior":"GOOD","fuel":54,"interior":"GOOD","name":"029/ER718NP","vin":"WME4513341K644408"},{"address":"Via Angelo Rizzoli 5, 20132 Milano","coordinates":[9.2505,45.5047,0],"engineType":"CE","exterior":"UNACCEPTABLE","fuel":60,"interior":"GOOD","name":"270/ES286JF","vin":"WME4513341K639943"},{"address":"Via Carlo Cicogna Mozzoni 16 - 22, 20161 Milano (raggio 100m)","coordinates":[9.15984,45.51577,0],"engineType":"CE","exterior":"UNACCEPTABLE","fuel":54,"interior":"GOOD","name":"305/ES379JF","vin":"WME4513341K647476"},{"address":"Via Alfredo Soffredini 8, 20126 Milano","coordinates":[9.22372,45.5144,0],"engineType":"CE","exterior":"GOOD","fuel":48,"interior":"GOOD","name":"025/ER714NP","vin":"WME4513341K637680"},{"address":"Via Thaon di Revel Genova 10, 20159 Milano","coordinates":[9.1889,45.49154,0],"engineType":"CE","exterior":"UNACCEPTABLE","fuel":75,"interior":"UNACCEPTABLE","name":"150/ER837NP","vin":"WME4513341K640136"},{"address":"Via Pico della Mirandola 2, 20151 Milano","coordinates":[9.13389,45.49581,0],"engineType":"CE","exterior":"GOOD","fuel":87,"interior":"GOOD","name":"129/ER816NP","vin":"WME4513341K636796"},{"address":"Via Vergiate 3 - 5, 20151 Milano (raggio 300m)","coordinates":[9.11325,45.4983,0],"engineType":"CE","exterior":"UNACCEPTABLE","fuel":48,"interior":"GOOD","name":"186/ES151JF","vin":"WME4513341K636699"},{"address":"Via Giovan Battista Angioletti 5, 20151 Milano","coordinates":[9.10358,45.49277,0],"engineType":"CE","exterior":"GOOD","fuel":60,"interior":"GOOD","name":"187/ES176JF","vin":"WME4513341K637195"},{"address":"Strada Statale Varesina, 20157 Milano","coordinates":[9.12704,45.51253,0],"engineType":"CE","exterior":"GOOD","fuel":81,"interior":"GOOD","name":"189/ES166JF","vin":"WME4513341K636967"},{"address":"Via Ausonio Zubiani, 20161 Milano","coordinates":[9.18761,45.50669,0],"engineType":"CE","exterior":"GOOD","fuel":93,"interior":"GOOD","name":"190/ES165JF","vin":"WME4513341K636958"},{"address":"Via Sant'Abbondio 2, 20142 Milano","coordinates":[9.17063,45.42669,0],"engineType":"CE","exterior":"GOOD","fuel":100,"interior":"GOOD","name":"192/ES179JF","vin":"WME4513341K637256"},{"address":"Via Luigi Canonica 41, 20154 Milano","coordinates":[9.17405,45.47908,0],"engineType":"CE","exterior":"GOOD","fuel":60,"interior":"GOOD","name":"193/ES175JF","vin":"WME4513341K637152"},{"address":"Via Livinallongo 5, 20139 Milano","coordinates":[9.23293,45.43657,0],"engineType":"CE","exterior":"GOOD","fuel":100,"interior":"GOOD","name":"223/ES145JF","vin":"WME4513341K636619"},{"address":"Via Bisbino 7, 20155 Milano","coordinates":[9.15518,45.49519,0],"engineType":"CE","exterior":"UNACCEPTABLE","fuel":93,"interior":"GOOD","name":"227/ES149JF","vin":"WME4513341K636674"},{"address":"Via Ettore Majorana, 20162 Milano","coordinates":[9.1851,45.51357,0],"engineType":"CE","exterior":"GOOD","fuel":24,"interior":"GOOD","name":"233/ES163JF","vin":"WME4513341K636923"},{"address":"Via Giuseppe De Finetti 4, 20142 Milano","coordinates":[9.15727,45.4233,0],"engineType":"CE","exterior":"GOOD","fuel":39,"interior":"UNACCEPTABLE","name":"376/ES310JF","vin":"WME4513341K645336"},{"address":"Via Giacomo della Porta 10, 20162 Milano","coordinates":[9.20543,45.51776,0],"engineType":"CE","exterior":"GOOD","fuel":60,"interior":"GOOD","name":"183/ES170JF","vin":"WME4513341K637012"},{"address":"Via Palatino 13, 20151 Milano","coordinates":[9.1308,45.4783,0],"engineType":"CE","exterior":"GOOD","fuel":57,"interior":"GOOD","name":"194/ES164JF","vin":"WME4513341K636946"},{"address":"Viale Ca' Granda 18, 20162 Milano","coordinates":[9.19729,45.50734,0],"engineType":"CE","exterior":"GOOD","fuel":100,"interior":"GOOD","name":"536/ET239KB","vin":"WME4513341K708632"},{"address":"Via Vittorio Gassman, 20128 Milano","coordinates":[9.23653,45.51273,0],"engineType":"CE","exterior":"GOOD","fuel":21,"interior":"GOOD","name":"451/ET187KB","vin":"WME4513341K706310"},{"address":"Via Quinto Romano 65, 20153 Milano","coordinates":[9.08498,45.46713,0],"engineType":"CE","exterior":"GOOD","fuel":100,"interior":"GOOD","name":"452/ET194KB","vin":"WME4513341K707737"},{"address":"Via Jan Palach, 20142 Milano","coordinates":[9.16784,45.42842,0],"engineType":"CE","exterior":"UNACCEPTABLE","fuel":100,"interior":"GOOD","name":"455/ET190KB","vin":"WME4513341K707682"},{"address":"Via Raffaello Barbiera 11, 20153 Milano","coordinates":[9.08227,45.45976,0],"engineType":"CE","exterior":"UNACCEPTABLE","fuel":78,"interior":"GOOD","name":"456/ET182KB","vin":"WME4513341K705583"},{"address":"Via Camillo e Otto Cima 31, 20134 Milano","coordinates":[9.2499,45.47257,0],"engineType":"CE","exterior":"GOOD","fuel":81,"interior":"GOOD","name":"457/ET188KB","vin":"WME4513341K707309"},{"address":"Via Giudice Maddalena Donadoni 14, 20158 Milano","coordinates":[9.16118,45.50456,0],"engineType":"CE","exterior":"GOOD","fuel":57,"interior":"GOOD","name":"458/ET212KB","vin":"WME4513341K708556"},{"address":"Via Leonardo Cambini 9, 20132 Milano","coordinates":[9.23035,45.49583,0],"engineType":"CE","exterior":"GOOD","fuel":45,"interior":"GOOD","name":"461/ET193KB","vin":"WME4513341K707828"},{"address":"Via Roberto Lepetit 31, 20124 Milano","coordinates":[9.20574,45.48431,0],"engineType":"CE","exterior":"GOOD","fuel":51,"interior":"GOOD","name":"462/ET181KB","vin":"WME4513341K705393"},{"address":"Via George Sand 38, 20161 Milano","coordinates":[9.17447,45.51922,0],"engineType":"CE","exterior":"GOOD","fuel":100,"interior":"GOOD","name":"463/ET185KB","vin":"WME4513341K705639"},{"address":"Via Zurigo 50, 20147 Milano","coordinates":[9.11675,45.45625,0],"engineType":"CE","exterior":"GOOD","fuel":42,"interior":"GOOD","name":"464/ET184KB","vin":"WME4513341K705617"},{"address":"Via Ippodromo 116, 20151 Milano","coordinates":[9.11568,45.48451,0],"engineType":"CE","exterior":"GOOD","fuel":45,"interior":"GOOD","name":"466/ET192KB","vin":"WME4513341K707606"},{"address":"Via Marignano, 20138 Milano","coordinates":[9.25617,45.42954,0],"engineType":"CE","exterior":"GOOD","fuel":100,"interior":"GOOD","name":"467/ET186KB","vin":"WME4513341K705361"},{"address":"Via Giacomo Leopardi 2, 20123 Milano","coordinates":[9.17606,45.46702,0],"engineType":"CE","exterior":"UNACCEPTABLE","fuel":100,"interior":"UNACCEPTABLE","name":"468/ET183KB","vin":"WME4513341K705302"},{"address":"Piazza Giuseppe Grandi 7, 20129 Milano","coordinates":[9.22012,45.46293,0],"engineType":"CE","exterior":"GOOD","fuel":51,"interior":"GOOD","name":"470/ET020KD","vin":"WME4513341K708183"},{"address":"Via Carlo Boncompagni 58, 20139 Milano","coordinates":[9.23141,45.43806,0],"engineType":"CE","exterior":"GOOD","fuel":33,"interior":"GOOD","name":"471/ET019KD","vin":"WME4513341K708118"},{"address":"Via Alcuino 7, 20149 Milano","coordinates":[9.15598,45.48275,0],"engineType":"CE","exterior":"UNACCEPTABLE","fuel":45,"interior":"UNACCEPTABLE","name":"472/ET014KD","vin":"WME4513341K706336"},{"address":"Via dei Salici 10, 20152 Milano","coordinates":[9.07799,45.45347,0],"engineType":"CE","exterior":"GOOD","fuel":24,"interior":"GOOD","name":"474/ET033KD","vin":"WME4513341K708924"},{"address":"Via Sapri 31, 20156 Milano","coordinates":[9.12602,45.50458,0],"engineType":"CE","exterior":"GOOD","fuel":42,"interior":"GOOD","name":"475/ET210KB","vin":"WME4513341K708876"},{"address":"Via Monsignor Oscar Arnulfo Romero, 20153 Milano","coordinates":[9.08584,45.46311,0],"engineType":"CE","exterior":"GOOD","fuel":75,"interior":"GOOD","name":"477/ET032KD","vin":"WME4513341K708765"},{"address":"Via Francesco Goya 17, 20148 Milano","coordinates":[9.1312,45.4862,0],"engineType":"CE","exterior":"UNACCEPTABLE","fuel":96,"interior":"GOOD","name":"478/ET034KD","vin":"WME4513341K708586"},{"address":"Via Ulisse Dini 7, 20141 Milano","coordinates":[9.17966,45.42849,0],"engineType":"CE","exterior":"GOOD","fuel":60,"interior":"GOOD","name":"480/ET030KD","vin":"WME4513341K708511"},{"address":"Via Carlo Moreschi, 20161 Milano","coordinates":[9.1838,45.51305,0],"engineType":"CE","exterior":"GOOD","fuel":21,"interior":"GOOD","name":"481/ET211KB","vin":"WME4513341K708865"},{"address":"Via Giuseppe Vigoni 4, 20122 Milano","coordinates":[9.18805,45.45502,0],"engineType":"CE","exterior":"GOOD","fuel":33,"interior":"GOOD","name":"482/ET041KD","vin":"WME4513341K709291"},{"address":"Via Solone 9, 20126 Milano","coordinates":[9.22222,45.51345,0],"engineType":"CE","exterior":"GOOD","fuel":100,"interior":"GOOD","name":"483/ET040KD","vin":"WME4513341K709147"},{"address":"Via Caltagirone 5, 20161 Milano","coordinates":[9.1734,45.52391,0],"engineType":"CE","exterior":"UNACCEPTABLE","fuel":66,"interior":"UNACCEPTABLE","name":"484/ET031KD","vin":"WME4513341K708521"},{"address":"Via Francesco Cilea 119, 20151 Milano","coordinates":[9.09466,45.5037,0],"engineType":"CE","exterior":"UNACCEPTABLE","fuel":100,"interior":"GOOD","name":"485/ET204KB","vin":"WME4513341K708550"},{"address":"Via Cesare Faccioli 9, 20152 Milano","coordinates":[9.09176,45.46182,0],"engineType":"CE","exterior":"GOOD","fuel":100,"interior":"GOOD","name":"486/ET203KB","vin":"WME4513341K708779"},{"address":"Via Pietro Giannone 5, 20154 Milano","coordinates":[9.17931,45.47902,0],"engineType":"CE","exterior":"GOOD","fuel":57,"interior":"GOOD","name":"487/ET215KB","vin":"WME4513341K708805"},{"address":"Via Enrico De Nicola 36, 20142 Milano","coordinates":[9.15854,45.43033,0],"engineType":"CE","exterior":"UNACCEPTABLE","fuel":39,"interior":"GOOD","name":"490/ET199KB","vin":"WME4513341K708371"},{"address":"Via Carlo Boncompagni 50, 20139 Milano","coordinates":[9.23067,45.4384,0],"engineType":"CE","exterior":"GOOD","fuel":30,"interior":"GOOD","name":"491/ET196KB","vin":"WME4513341K708269"},{"address":"Via Carlo Ravizza 5, 20149 Milano","coordinates":[9.15228,45.46761,0],"engineType":"CE","exterior":"UNACCEPTABLE","fuel":75,"interior":"GOOD","name":"492/ET198KB","vin":"WME4513341K708360"},{"address":"Via Ilarione Rancati 4, 20127 Milano","coordinates":[9.22228,45.50102,0],"engineType":"CE","exterior":"UNACCEPTABLE","fuel":100,"interior":"GOOD","name":"493/ET208KB","vin":"WME4513341K708688"},{"address":"Via Enrico Falck 7 - 11, 20151 Milano (raggio 100m)","coordinates":[9.10513,45.49852,0],"engineType":"CE","exterior":"GOOD","fuel":93,"interior":"GOOD","name":"495/ET035KD","vin":"WME4513341K708660"},{"address":"Via Giuseppe Carozzi 8, 20147 Milano","coordinates":[9.11806,45.45587,0],"engineType":"CE","exterior":"UNACCEPTABLE","fuel":100,"interior":"GOOD","name":"497/ET246KB","vin":"WME4513341K708990"},{"address":"Via Monte Rotondo 15, 20162 Milano","coordinates":[9.19622,45.51448,0],"engineType":"CE","exterior":"GOOD","fuel":72,"interior":"GOOD","name":"499/ET214KB","vin":"WME4513341K708526"},{"address":"Via Antonino Giuffré 8, 20159 Milano (raggio 100m)","coordinates":[9.19084,45.49725,0],"engineType":"CE","exterior":"GOOD","fuel":100,"interior":"GOOD","name":"500/ET226KB","vin":"WME4513341K708820"},{"address":"Via delle Forze Armate 405, 20152 Milano","coordinates":[9.09063,45.46122,0],"engineType":"CE","exterior":"UNACCEPTABLE","fuel":90,"interior":"GOOD","name":"501/ET224KB","vin":"WME4513341K709004"},{"address":"Via Carlo Botta 17, 20135 Milano","coordinates":[9.20481,45.4538,0],"engineType":"CE","exterior":"GOOD","fuel":27,"interior":"GOOD","name":"502/ET225KB","vin":"WME4513341K709220"},{"address":"Via Lanfranco della Pila 21, 20162 Milano","coordinates":[9.19751,45.51718,0],"engineType":"CE","exterior":"UNACCEPTABLE","fuel":33,"interior":"GOOD","name":"503/ET209KB","vin":"WME4513341K708908"},{"address":"Via Piero Bottoni 32, 20141 Milano","coordinates":[9.20983,45.42643,0],"engineType":"CE","exterior":"GOOD","fuel":42,"interior":"GOOD","name":"504/ET248KB","vin":"WME4513341K709244"},{"address":"Via Angelo Scarsellini 10, 20161 Milano","coordinates":[9.17229,45.51105,0],"engineType":"CE","exterior":"GOOD","fuel":100,"interior":"GOOD","name":"507/ET216KB","vin":"WME4513341K709326"},{"address":"Via Garofalo 8, 20133 Milano","coordinates":[9.21943,45.47905,0],"engineType":"CE","exterior":"UNACCEPTABLE","fuel":75,"interior":"UNACCEPTABLE","name":"508/ET220KB","vin":"WME4513341K709386"},{"address":"Via Carlo Boncompagni 66, 20139 Milano","coordinates":[9.23301,45.43742,0],"engineType":"CE","exterior":"GOOD","fuel":87,"interior":"GOOD","name":"509/ET222KB","vin":"WME4513341K709334"},{"address":"Via Bari 5, 20143 Milano","coordinates":[9.14703,45.43831,0],"engineType":"CE","exterior":"GOOD","fuel":57,"interior":"UNACCEPTABLE","name":"510/ET213KB","vin":"WME4513341K708757"},{"address":"Via Caccialepori 43, 20148 Milano","coordinates":[9.14172,45.47169,0],"engineType":"CE","exterior":"GOOD","fuel":54,"interior":"GOOD","name":"511/ET217KB","vin":"WME4513341K709371"},{"address":"Via Pordenone 28, 20132 Milano","coordinates":[9.23569,45.49054,0],"engineType":"CE","exterior":"GOOD","fuel":57,"interior":"GOOD","name":"512/ET273KB","vin":"WME4513341K709311"},{"address":"Via Ambrogio da Fossano Bergognone 56, 20144 Milano","coordinates":[9.16513,45.45162,0],"engineType":"CE","exterior":"UNACCEPTABLE","fuel":51,"interior":"UNACCEPTABLE","name":"514/ET221KB","vin":"WME4513341K709316"},{"address":"Via Federico Tesio 29, 20151 Milano","coordinates":[9.11843,45.48057,0],"engineType":"CE","exterior":"GOOD","fuel":84,"interior":"GOOD","name":"515/ET206KB","vin":"WME4513341K708893"},{"address":"Via Giulio Belinzaghi 21, 20159 Milano","coordinates":[9.18847,45.49682,0],"engineType":"CE","exterior":"GOOD","fuel":69,"interior":"GOOD","name":"517/ET275KB","vin":"WME4513341K709265"},{"address":"Via Maria Montessori 1, 20138 Milano","coordinates":[9.23887,45.46062,0],"engineType":"CE","exterior":"GOOD","fuel":63,"interior":"GOOD","name":"518/ET274KB","vin":"WME4513341K709356"},{"address":"Via Giuseppe Ripamonti 306 - 340, 20141 Milano (raggio 300m)","coordinates":[9.20348,45.42085,0],"engineType":"CE","exterior":"GOOD","fuel":51,"interior":"GOOD","name":"521/ET233KB","vin":"WME4513341K707657"},{"address":"Via Lanfranco della Pila 59, 20162 Milano","coordinates":[9.2013,45.51708,0],"engineType":"CE","exterior":"GOOD","fuel":63,"interior":"GOOD","name":"522/ET231KB","vin":"WME4513341K705567"},{"address":"Viale Monza 346, 20128 Milano","coordinates":[9.22767,45.52224,0],"engineType":"CE","exterior":"GOOD","fuel":15,"interior":"GOOD","name":"524/ET287KB","vin":"WME4513341K708950"},{"address":"Via Alfredo Soffredini 20, 20126 Milano","coordinates":[9.22418,45.51594,0],"engineType":"CE","exterior":"UNACCEPTABLE","fuel":51,"interior":"GOOD","name":"527/ET067KD","vin":"WME4513341K709921"},{"address":"Viale Faenza 24, 20142 Milano","coordinates":[9.1496,45.43712,0],"engineType":"CE","exterior":"GOOD","fuel":54,"interior":"GOOD","name":"531/ET249KB","vin":"WME4513341K709255"},{"address":"Via Felice Romani 8, 20125 Milano","coordinates":[9.20851,45.50352,0],"engineType":"CE","exterior":"UNACCEPTABLE","fuel":51,"interior":"GOOD","name":"532/ET018KB","vin":"WME4513341K709135"},{"address":"Via Bisceglie 75, 20152 Milano","coordinates":[9.1177,45.45206,0],"engineType":"CE","exterior":"GOOD","fuel":100,"interior":"GOOD","name":"535/ET237KB","vin":"WME4513341K708652"},{"address":"Via Francesco Cilea 90 - 100, 20151 Milano (raggio 300m)","coordinates":[9.10158,45.49652,0],"engineType":"CE","exterior":"GOOD","fuel":39,"interior":"GOOD","name":"538/ET238KB","vin":"WME4513341K708641"},{"address":"Viale Omero 7, 20139 Milano","coordinates":[9.22449,45.43569,0],"engineType":"CE","exterior":"GOOD","fuel":69,"interior":"GOOD","name":"540/ET232KB","vin":"WME4513341K707852"},{"address":"Via Grigna 17, 20155 Milano","coordinates":[9.15598,45.49373,0],"engineType":"CE","exterior":"UNACCEPTABLE","fuel":69,"interior":"UNACCEPTABLE","name":"541/ET021KD","vin":"WME4513341K708209"},{"address":"Via Plezzo 32, 20132 Milano","coordinates":[9.23509,45.48806,0],"engineType":"CE","exterior":"GOOD","fuel":57,"interior":"GOOD","name":"542/ET015KD","vin":"WME4513341K707759"},{"address":"Via Matteo Civitali 66, 20148 Milano","coordinates":[9.12945,45.47464,0],"engineType":"CE","exterior":"GOOD","fuel":33,"interior":"GOOD","name":"543/ET016KD","vin":"WME4513341K707772"},{"address":"Viale Vittorio Veneto 24, 20124 Milano","coordinates":[9.19949,45.47735,0],"engineType":"CE","exterior":"UNACCEPTABLE","fuel":36,"interior":"GOOD","name":"546/ET039KD","vin":"WME4513341K709273"},{"address":"Via Luigi Vanvitelli 22, 20129 Milano","coordinates":[9.22143,45.47223,0],"engineType":"CE","exterior":"GOOD","fuel":100,"interior":"GOOD","name":"547/ET038KD","vin":"WME4513341K708944"},{"address":"Via Gottlieb Wilhelm Daimler, 20151 Milano","coordinates":[9.09898,45.5079,0],"engineType":"CE","exterior":"GOOD","fuel":39,"interior":"GOOD","name":"548/ET037KD","vin":"WME4513341K709375"},{"address":"Via Arzaga 24, 20146 Milano","coordinates":[9.13466,45.45576,0],"engineType":"CE","exterior":"GOOD","fuel":30,"interior":"GOOD","name":"549/ET018KD","vin":"WME4513341K708198"},{"address":"Via Giuseppe Candiani 120, 20158 Milano","coordinates":[9.16271,45.50313,0],"engineType":"CE","exterior":"UNACCEPTABLE","fuel":30,"interior":"GOOD","name":"550/ET013KD","vin":"WME4513341K705529"},{"address":"Viale Monte Grappa 1, 20124 Milano","coordinates":[9.19212,45.48037,0],"engineType":"CE","exterior":"UNACCEPTABLE","fuel":60,"interior":"GOOD","name":"552/ET024KD","vin":"WME4513341K708084"},{"address":"Via Crema 30, 20135 Milano","coordinates":[9.20265,45.44754,0],"engineType":"CE","exterior":"GOOD","fuel":100,"interior":"GOOD","name":"554/ET063KD","vin":"WME4513341K709906"},{"address":"Via Andegari 1, 20121 Milano","coordinates":[9.18892,45.46838,0],"engineType":"CE","exterior":"UNACCEPTABLE","fuel":42,"interior":"UNACCEPTABLE","name":"555/ET292KB","vin":"WME4513341K709643"},{"address":"Via Boschi-di Stefano, 20126 Milano","coordinates":[9.20864,45.50987,0],"engineType":"CE","exterior":"GOOD","fuel":36,"interior":"GOOD","name":"557/ET288KB","vin":"WME4513341K709407"},{"address":"Via Giorgio De Chirico 4, 20151 Milano","coordinates":[9.09809,45.49454,0],"engineType":"CE","exterior":"GOOD","fuel":60,"interior":"GOOD","name":"558/ET283KB","vin":"WME4513341K709396"},{"address":"Via Abbondio Sangiorgio 2, 20145 Milano","coordinates":[9.17117,45.47578,0],"engineType":"CE","exterior":"GOOD","fuel":57,"interior":"GOOD","name":"562/ET245KB","vin":"WME4513341K708745"},{"address":"Via Gaetano Previati 64, 20149 Milano","coordinates":[9.14668,45.46999,0],"engineType":"CE","exterior":"GOOD","fuel":100,"interior":"GOOD","name":"565/ET291KB","vin":"WME4513341K709886"},{"address":"Viale Fulvio Testi 280, 20126 Milano","coordinates":[9.21133,45.5244,0],"engineType":"CE","exterior":"GOOD","fuel":69,"interior":"GOOD","name":"566/ET072KD","vin":"WME4513341K709982"},{"address":"Via Gaeta 3, 20161 Milano","coordinates":[9.17269,45.51969,0],"engineType":"CE","exterior":"GOOD","fuel":100,"interior":"GOOD","name":"567/ET061KD","vin":"WME4513341K709047"},{"address":"Via San Mamete 82, 20128 Milano","coordinates":[9.25281,45.51345,0],"engineType":"CE","exterior":"UNACCEPTABLE","fuel":42,"interior":"GOOD","name":"568/ET071KD","vin":"WME4513341K710330"},{"address":"Via Simone Martini Detto Memmi 25, 20143 Milano","coordinates":[9.15977,45.44048,0],"engineType":"CE","exterior":"GOOD","fuel":100,"interior":"GOOD","name":"570/ET070KD","vin":"WME4513341K710297"},{"address":"Via Cogne 3, 20157 Milano","coordinates":[9.12537,45.51584,0],"engineType":"CE","exterior":"UNACCEPTABLE","fuel":54,"interior":"UNACCEPTABLE","name":"572/ET290KB","vin":"WME4513341K709935"},{"address":"Alzaia Naviglio Grande 84, 20144 Milano","coordinates":[9.16649,45.45013,0],"engineType":"CE","exterior":"UNACCEPTABLE","fuel":39,"interior":"UNACCEPTABLE","name":"573/ET241KB","vin":"WME4513341K708547"},{"address":"Viale Isernia 9, 20148 Milano (raggio 100m)","coordinates":[9.13797,45.48841,0],"engineType":"CE","exterior":"GOOD","fuel":24,"interior":"GOOD","name":"576/ET019KB","vin":"WME4513341K708731"},{"address":"Via Maria Montessori 4, 20138 Milano","coordinates":[9.24002,45.46008,0],"engineType":"CE","exterior":"GOOD","fuel":39,"interior":"GOOD","name":"577/ET197KB","vin":"WME4513341K708049"},{"address":"Via Benedetto Croce, 20151 Milano","coordinates":[9.11974,45.49356,0],"engineType":"CE","exterior":"GOOD","fuel":72,"interior":"GOOD","name":"578/ET201KB","vin":"WME4513341K708023"},{"address":"Viale Alcide De Gasperi, 20151 Milano","coordinates":[9.12386,45.49783,0],"engineType":"CE","exterior":"GOOD","fuel":39,"interior":"GOOD","name":"579/ET180KB","vin":"WME4513341K705452"},{"address":"Piazza Leonardo da Vinci 8 - 14, 20133 Milano (raggio 300m)","coordinates":[9.2257,45.47834,0],"engineType":"CE","exterior":"UNACCEPTABLE","fuel":93,"interior":"UNACCEPTABLE","name":"581/ET090KD","vin":"WME4513341K709872"},{"address":"Via Andrea Massena 10, 20145 Milano","coordinates":[9.16663,45.47724,0],"engineType":"CE","exterior":"GOOD","fuel":57,"interior":"GOOD","name":"583/ET082KD","vin":"WME4513341K709414"},{"address":"Via Luigi Capuana 3, 20157 Milano","coordinates":[9.13913,45.51848,0],"engineType":"CE","exterior":"GOOD","fuel":54,"interior":"GOOD","name":"585/ET086KD","vin":"WME4513341K709911"},{"address":"Via Franco Russoli, 20143 Milano","coordinates":[9.16574,45.44117,0],"engineType":"CE","exterior":"GOOD","fuel":15,"interior":"GOOD","name":"586/ET091KD","vin":"WME4513341K709852"},{"address":"Via Ugo Ojetti 33 - 43, 20151 Milano (raggio 100m)","coordinates":[9.11165,45.49466,0],"engineType":"CE","exterior":"GOOD","fuel":96,"interior":"GOOD","name":"590/ET092KD","vin":"WME4513341K709894"},{"address":"Via Salemi 17, 20161 Milano","coordinates":[9.15873,45.52529,0],"engineType":"CE","exterior":"GOOD","fuel":100,"interior":"GOOD","name":"591/ET085KD","vin":"WME4513341K709424"},{"address":"Via Don Carlo Gnocchi 20, 20148 Milano","coordinates":[9.12557,45.47195,0],"engineType":"CE","exterior":"GOOD","fuel":18,"interior":"GOOD","name":"592/ET098KD","vin":"WME4513341K709968"},{"address":"Piazza Giustino Fortunato 4, 20161 Milano","coordinates":[9.17535,45.52366,0],"engineType":"CE","exterior":"UNACCEPTABLE","fuel":60,"interior":"GOOD","name":"593/ET089KD","vin":"WME4513341K709925"},{"address":"Piazza Melozzo da Forlì 11, 20147 Milano","coordinates":[9.13013,45.46793,0],"engineType":"CE","exterior":"UNACCEPTABLE","fuel":100,"interior":"UNACCEPTABLE","name":"596/ET096KD","vin":"WME4513341K709452"},{"address":"Viale Gorizia 6, 20144 Milano","coordinates":[9.17326,45.4546,0],"engineType":"CE","exterior":"UNACCEPTABLE","fuel":36,"interior":"GOOD","name":"597/ET027KD","vin":"WME4513341K708382"},{"address":"Via Carlo Innocenzo Frugoni 19, 20162 Milano","coordinates":[9.19044,45.52213,0],"engineType":"CE","exterior":"GOOD","fuel":100,"interior":"GOOD","name":"598/ET058KD","vin":"WME4513341K705518"}]}